,name,place,lat,lon,map
105558, เดชอุดม, town,14.9041057,105.0756671,./maps_data/ เดชอุดม.png
105559, Chandausi, city,28.449104,78.78285129999998,./maps_data/ Chandausi.png
105560, 易武镇, town,21.9811738,101.4693972,./maps_data/ 易武镇.png
105561, Nhavi, town,21.1977383,75.8362524,./maps_data/ Nhavi.png
105562, ไพรบึง, town,14.7558559,104.3599547,./maps_data/ ไพรบึง.png
105563, Sukoharjo, town,-7.6829886,110.8406284,./maps_data/ Sukoharjo.png
105564, น้ำเกลี้ยง, town,14.9277788,104.513315,./maps_data/ น้ำเกลี้ยง.png
105565, Месягутово, town,55.53469499999999,58.23923900000001,./maps_data/ Месягутово.png
105566, Ксеньевка, town,53.55980699999999,118.734123,./maps_data/ Ксеньевка.png
105567, Ujhani, town,28.0018463,79.0087423,./maps_data/ Ujhani.png
105568, Sambhal, city,28.585197,78.570932,./maps_data/ Sambhal.png
105569, 乌龙泉街, town,30.2690082,114.328876,./maps_data/ 乌龙泉街.png
105570, 石洞街, town,30.3436243,114.2890548,./maps_data/ 石洞街.png
105571, 五里界街, town,30.3362945,114.3860392,./maps_data/ 五里界街.png
105572, 金口街, town,30.3367019,114.1293797,./maps_data/ 金口街.png
105573, 山坡街道, town,30.0869267,114.3465571,./maps_data/ 山坡街道.png
105574, 郑店街, town,30.3318127,114.2522892,./maps_data/ 郑店街.png
105575, 湖泗街道, town,30.0184322,114.4604907,./maps_data/ 湖泗街道.png
105576, 法泗街, town,30.1546345,114.1568798,./maps_data/ 法泗街.png
105577, 安山街, town,30.156415600000006,114.2909388,./maps_data/ 安山街.png
105578, ၵဵင်းတွင်း, town,20.7636453,98.33285490000002,./maps_data/ ၵဵင်းတွင်း.png
105579, Rampur, town,28.8014001,79.02843370000002,./maps_data/ Rampur.png
105580, Moradabad, city,28.8334982,78.7732864,./maps_data/ Moradabad.png
105581, Gajraula, town,28.8360988,78.2452916,./maps_data/ Gajraula.png
105582, Noorpur, town,29.1500679,78.4074691,./maps_data/ Noorpur.png
105583, Chandpur, town,29.1373122,78.2715003,./maps_data/ Chandpur.png
105584, Seohara, town,29.2071574,78.58422259999998,./maps_data/ Seohara.png
105585, Hasanpur, town,28.7227817,78.28262240000002,./maps_data/ Hasanpur.png
105586, Amroha, city,28.90662,78.4707309,./maps_data/ Amroha.png
105587, Tanda, town,28.975349800000004,78.9420086,./maps_data/ Tanda.png
105588, Bijnor, town,29.3695221,78.13714350000002,./maps_data/ Bijnor.png
105589, Kashipur, town,29.2117573,78.9617306,./maps_data/ Kashipur.png
105590, Yawal, town,21.1691008,75.6993641,./maps_data/ Yawal.png
105591, Sherkot, town,29.3248768,78.5732637,./maps_data/ Sherkot.png
105592, Najibabad, town,29.6131324,78.3430066,./maps_data/ Najibabad.png
105593, Nagina, town,29.4407679,78.42997629999998,./maps_data/ Nagina.png
105594, সিরাজগঞ্জ, town,24.4566253,89.7081281,./maps_data/ সিরাজগঞ্জ.png
105595, Barhāpura, town,29.5253255,78.5325567,./maps_data/ Barhāpura.png
105596, 룡연읍, town,38.1500606,124.8823683,./maps_data/ 룡연읍.png
105597, Thakurdwara, town,29.1921593,78.8618197,./maps_data/ Thakurdwara.png
105598, Haridwār, city,29.9384473,78.1452985,./maps_data/ Haridwār.png
105599, 磨憨镇, town,21.1907876,101.6877196,./maps_data/ 磨憨镇.png
105600, 日立市, city,36.5991225,140.6504604,./maps_data/ 日立市.png
105601, Gola Gokarannath, town,28.074659000000004,80.4720642,./maps_data/ Gola Gokarannath.png
105603, Rampur Maniharan, town,29.8035244,77.45137290000002,./maps_data/ Rampur Maniharan.png
105604, Светлый, town,51.6737086,45.6227753,./maps_data/ Светлый.png
105605, Частоозерье, town,55.56825600000001,67.909462,./maps_data/ Частоозерье.png
105606, Муравленко, town,63.7947977,74.4969322,./maps_data/ Муравленко.png
105607, บ้านเมื่องคอง, town,19.3855426,98.7156782,./maps_data/ บ้านเมื่องคอง.png
105608, ท่าวังผา, town,19.1217177,100.8106858,./maps_data/ ท่าวังผา.png
105609, ปราณบุรี, town,12.3876804,99.90143,./maps_data/ ปราณบุรี.png
105610, ท่ายาง, town,12.9721544,99.8896248,./maps_data/ ท่ายาง.png
105611, ไร่ใหม่, town,12.2101716,99.8605019,./maps_data/ ไร่ใหม่.png
105612, Shamli, city,29.4483494,77.30877190000002,./maps_data/ Shamli.png
105613, Владимиро-Александровское, town,42.8922366,133.0782462,./maps_data/ Владимиро-Александровское.png
105614, Зверево, town,48.020645,40.118561,./maps_data/ Зверево.png
105615, Behat, town,30.1713379,77.615188,./maps_data/ Behat.png
105616, Badshahrbagh, town,30.2557295,77.6216451,./maps_data/ Badshahrbagh.png
105617, قلنسية, town,12.6894329,53.4878541,./maps_data/ قلنسية.png
105618, ذباب, town,12.943462,43.4107916,./maps_data/ ذباب.png
105619, بلحاف, town,14.0043673,48.1762909,./maps_data/ بلحاف.png
105620, مأرب, city,15.4578788,45.323024200000006,./maps_data/ مأرب.png
105621, الضليعة, town,14.963672699999998,48.0005097,./maps_data/ الضليعة.png
105622, بيت الفقيه, town,14.516353,43.324459,./maps_data/ بيت الفقيه.png
105623, المنصورية, town,14.685597,43.29922,./maps_data/ المنصورية.png
105624, الدريهمي, town,14.637019,43.055048,./maps_data/ الدريهمي.png
105625, Среднеколымск, town,67.455497,153.7071456,./maps_data/ Среднеколымск.png
105626, الحدية, town,14.526376999999998,43.570449,./maps_data/ الحدية.png
105627, الربوع, town,14.058517000000002,44.09230820000001,./maps_data/ الربوع.png
105628, Sardhana, town,29.1453449,77.6107693,./maps_data/ Sardhana.png
105629, زراجة, town,14.866917,44.378678,./maps_data/ زراجة.png
105630, باقم, town,17.397132,43.477426,./maps_data/ باقم.png
105631, Циолковский, town,51.764973,128.123428,./maps_data/ Циолковский.png
105632, هجرة قطابر, town,17.296836199999998,43.38318889999999,./maps_data/ هجرة قطابر.png
105633, القلعة, town,16.9478316,43.2750258,./maps_data/ القلعة.png
105634, النضير, town,16.908952600000006,43.2622562,./maps_data/ النضير.png
105635, الملاحيط, town,16.768441,43.275229,./maps_data/ الملاحيط.png
105636, حرض, town,16.4061009,43.0560545,./maps_data/ حرض.png
105637, ميدي, town,16.321009,42.812992,./maps_data/ ميدي.png
105638, الحديدة, city,14.7978677,42.9544872,./maps_data/ الحديدة.png
105639, وعلان, town,15.0719982,44.2740614,./maps_data/ وعلان.png
105640, جاذب, town,16.625540700000002,52.9944481,./maps_data/ جاذب.png
105641, النادرة, town,14.1007088,44.4766803,./maps_data/ النادرة.png
105642, السدة, town,14.1221,44.42139,./maps_data/ السدة.png
105643, الأحد, town,14.255560199999998,43.64252379999999,./maps_data/ الأحد.png
105644, بروم, town,14.3637861,48.98169470000001,./maps_data/ بروم.png
105645, Baraut, city,29.1027886,77.25874540000002,./maps_data/ Baraut.png
105646, رحبة الكولة, town,14.895735,44.989185,./maps_data/ رحبة الكولة.png
105647, شرس, town,15.712331,43.649252,./maps_data/ شرس.png
105648, بيت عذاقة, town,15.6162214,43.705877,./maps_data/ بيت عذاقة.png
105649, الطويلة, town,15.494979999999998,43.740043,./maps_data/ الطويلة.png
105651, ضحيان, town,17.062472,43.60026,./maps_data/ ضحيان.png
105652, မိုင်းဖြတ်, town,20.8784297,99.9255692,./maps_data/ မိုင်းဖြတ်.png
105653, سوق الخميس, town,17.1811391,43.2882088,./maps_data/ سوق الخميس.png
105654, نجد الجماعي, town,13.91581,44.324144,./maps_data/ نجد الجماعي.png
105655, جبلة, town,13.9224927,44.1457613,./maps_data/ جبلة.png
105656, الميفعة, town,14.463922,44.548658,./maps_data/ الميفعة.png
105657, الشويب الجديد, town,24.7401149,55.78836800000001,./maps_data/ الشويب الجديد.png
105658, الشويب, town,24.7468701,55.8157397,./maps_data/ الشويب.png
105659, Александровка, town,52.680561,54.41341800000001,./maps_data/ Александровка.png
105660, Кваркено, town,52.084141,59.72230500000001,./maps_data/ Кваркено.png
105661, Матвеевка, town,53.51185600000001,53.482029,./maps_data/ Матвеевка.png
105662, Плешаново, town,52.8480171,53.4871553,./maps_data/ Плешаново.png
105663, Первомайский, town,51.902344,51.639091,./maps_data/ Первомайский.png
105664, Sungguminasa, town,-5.2006783,119.4523167,./maps_data/ Sungguminasa.png
105665, พาน, town,19.5497003,99.7428569,./maps_data/ พาน.png
105666, الزريبة, town,14.180425,43.386584,./maps_data/ الزريبة.png
105667, الجراحي, town,14.1324226,43.38859779999999,./maps_data/ الجراحي.png
105668, الحسينية, town,14.355057999999998,43.320638,./maps_data/ الحسينية.png
105669, الحصين, town,13.792627800000002,44.7686718,./maps_data/ الحصين.png
105670, الرضائي, town,14.0171717,44.39402670000001,./maps_data/ الرضائي.png
105671, رحاب, town,14.228759,44.18445429999999,./maps_data/ رحاب.png
105672, ظبة, town,14.490517,44.131085,./maps_data/ ظبة.png
105673, العيص, town,15.2225888,51.1069428,./maps_data/ العيص.png
105674, سيحوت, town,15.210556,51.245556,./maps_data/ سيحوت.png
105675, صيف, town,15.313889,48.33,./maps_data/ صيف.png
105676, عبس, town,16.002948,43.197245,./maps_data/ عبس.png
105677, شفر, town,15.981446,43.194835,./maps_data/ شفر.png
105678, العنان, town,16.7230881,44.3122273,./maps_data/ العنان.png
105679, رجوزة, town,16.7007465,44.4147663,./maps_data/ رجوزة.png
105680, ساه, town,15.5933436,48.8504702,./maps_data/ ساه.png
105681, السويري, town,15.979722,49.02,./maps_data/ السويري.png
105682, قشن, town,15.422778,51.681389,./maps_data/ قشن.png
105683, حصوين, town,15.592886600000002,52.10374829999999,./maps_data/ حصوين.png
105684, العبر, town,16.1367444,47.2348136,./maps_data/ العبر.png
105685, العر, town,15.246476,43.888362,./maps_data/ العر.png
105686, متنة, town,15.253333,44.024722,./maps_data/ متنة.png
105687, مناخة, town,15.074217,43.741564,./maps_data/ مناخة.png
105688, السخنة, town,14.794076,43.436196,./maps_data/ السخنة.png
105689, المحويت, town,15.470072,43.544812,./maps_data/ المحويت.png
105690, الشغادرة, town,15.6203206,43.5268808,./maps_data/ الشغادرة.png
105691, นครชัยศรี, town,13.8009596,100.1845674,./maps_data/ นครชัยศรี.png
105692, أحور, town,13.52019,46.713669,./maps_data/ أحور.png
105693, الصعيد, town,14.331834900000002,46.8722055,./maps_data/ الصعيد.png
105695, الصومعة, town,14.085412,45.802795,./maps_data/ الصومعة.png
105696, المنقطع, town,14.106576,45.448038,./maps_data/ المنقطع.png
105697, بني بكر, town,13.935848000000002,45.2650285,./maps_data/ بني بكر.png
105698, الزاهر, town,13.9679997,45.4776896,./maps_data/ الزاهر.png
105699, مدينة لبعوس, town,13.8666655,45.2499955,./maps_data/ مدينة لبعوس.png
105701, زخم, town,14.294963,44.685041,./maps_data/ زخم.png
105702, خاو, town,14.2922553,44.4210386,./maps_data/ خاو.png
105703, يريم, town,14.2990691,44.3794492,./maps_data/ يريم.png
105704, الرضمة, town,14.221358800000004,44.5870947,./maps_data/ الرضمة.png
105705, حمام دمت, town,14.0885129,44.6707046,./maps_data/ حمام دمت.png
105706, جبن, town,14.011636,44.8746,./maps_data/ جبن.png
105707, قرية المركز, town,13.982578,44.289133,./maps_data/ قرية المركز.png
105708, السياني, town,13.8429959,44.1733652,./maps_data/ السياني.png
105709, القاعدة, town,13.755565,44.132356,./maps_data/ القاعدة.png
105710, الربوع, town,13.780236,43.869006,./maps_data/ الربوع.png
105712, النشمة, town,13.389099,43.9722703,./maps_data/ النشمة.png
105713, التحيتا, town,14.18356,43.226369,./maps_data/ التحيتا.png
105714, الجبين, town,14.704007,43.599043,./maps_data/ الجبين.png
105715, كسمة, town,14.581748,43.636763,./maps_data/ كسمة.png
105716, زبيد, town,14.1951,43.315181,./maps_data/ زبيد.png
105717, التريبة, town,14.228689,43.378943,./maps_data/ التريبة.png
105718, ศีรษะทอง, town,13.8107449,100.1595485,./maps_data/ ศีรษะทอง.png
105719, المراوعة, town,14.830687,43.15390900000001,./maps_data/ المراوعة.png
105720, القطيع, town,14.900749,43.205689,./maps_data/ القطيع.png
105721, باجل, town,15.058353,43.28506,./maps_data/ باجل.png
105722, Донецк, town,48.3382864,39.95094879999999,./maps_data/ Донецк.png
105723, القناوص, town,15.492774,43.134334,./maps_data/ القناوص.png
105724, اللحية, town,15.703088,42.690933,./maps_data/ اللحية.png
105725, الزهرة, town,15.723770000000002,42.995821,./maps_data/ الزهرة.png
105726, حجة, town,15.694247,43.605821,./maps_data/ حجة.png
105727, نعمان, town,15.581187,43.587271,./maps_data/ نعمان.png
105728, الصفقين, town,15.37897,43.42120900000001,./maps_data/ الصفقين.png
105729, عزلة بيت مران, town,15.6910328,44.2131185,./maps_data/ عزلة بيت مران.png
105730, السوادية, town,14.294929000000002,45.2215544,./maps_data/ السوادية.png
105731, ملاح, town,14.4154238,44.7844809,./maps_data/ ملاح.png
105732, القريشية, town,14.512204999999998,44.853581,./maps_data/ القريشية.png
105733, ظلمة حبيش, town,14.102296,44.09404,./maps_data/ ظلمة حبيش.png
105734, حيس, town,13.931702,43.483099,./maps_data/ حيس.png
105735, الرونة, town,13.7620093,43.79994179999999,./maps_data/ الرونة.png
105736, مقبنة, town,13.6606446,43.6859492,./maps_data/ مقبنة.png
105737, Лянтор, town,61.622494,72.165138,./maps_data/ Лянтор.png
105738, كمران, town,15.334799800000004,42.6097112,./maps_data/ كمران.png
105739, الصليف, town,15.3052021,42.67067520000001,./maps_data/ الصليف.png
105740, الخوبة, town,15.5320584,42.7443317,./maps_data/ الخوبة.png
105741, وضرة, town,15.710726,43.48321,./maps_data/ وضرة.png
105745, المحابشة, town,15.947582,43.435868,./maps_data/ المحابشة.png
105746, سوق الخميس (مستباء), town,16.228161,43.24895,./maps_data/ سوق الخميس (مستباء).png
105747, الحبيلين, town,13.528387099999998,44.8523049,./maps_data/ الحبيلين.png
105748, البريقة, town,12.7524199,44.8920634,./maps_data/ البريقة.png
105749, الكود, town,13.0876914,45.36219000000001,./maps_data/ الكود.png
105750, الحصن, town,13.2930322,45.2953717,./maps_data/ الحصن.png
105751, زنجبار, town,13.128581099999998,45.3812081,./maps_data/ زنجبار.png
105752, جعار, town,13.2231254,45.305762,./maps_data/ جعار.png
105753, صبر, town,12.9995311,44.9144136,./maps_data/ صبر.png
105754, الملاح, town,13.4298052,44.8255131,./maps_data/ الملاح.png
105755, المحفد, town,14.058469,46.913285,./maps_data/ المحفد.png
105757, رضوم, town,14.0893802,47.7323343,./maps_data/ رضوم.png
105758, الروضة, town,14.470116,47.273677,./maps_data/ الروضة.png
105760, لودر, town,13.8841068,45.8677186,./maps_data/ لودر.png
105761, حيدان, town,16.77899,43.433716,./maps_data/ حيدان.png
105762, سوق الطلح, town,17.018427,43.6818401,./maps_data/ سوق الطلح.png
105764, كتاف, town,17.0356465,44.1097102,./maps_data/ كتاف.png
105765, الرباط, town,14.2055762,46.3875153,./maps_data/ الرباط.png
105766, مودية, town,13.932222,46.0825,./maps_data/ مودية.png
105767, مكيراس, town,13.9440737,45.6707099,./maps_data/ مكيراس.png
105768, ال معوضة, town,14.210554,45.387324,./maps_data/ ال معوضة.png
105769, رصد, town,13.712217,45.303123,./maps_data/ رصد.png
105771, ฝาง, town,19.9183903,99.2148807,./maps_data/ ฝาง.png
105772, حورة, town,15.7118479,48.297387,./maps_data/ حورة.png
105773, الغرفة, town,15.922222,48.725833,./maps_data/ الغرفة.png
105774, ثمود, town,17.291887,49.9187269,./maps_data/ ثمود.png
105775, شحن, town,17.7693255,52.4887955,./maps_data/ شحن.png
105776, الغيضة, city,16.2110173,52.1828352,./maps_data/ الغيضة.png
105777, نشطون, town,15.8232846,52.1860456,./maps_data/ نشطون.png
105778, الجديدة, town,15.075120000000002,45.299622,./maps_data/ الجديدة.png
105779, عسيلان, town,15.032244199999996,45.82817410000001,./maps_data/ عسيلان.png
105780, التربة, town,13.212704,44.124148,./maps_data/ التربة.png
105781, ثوجان, town,13.2777354,44.4266618,./maps_data/ ثوجان.png
105782, الضالع, town,13.7017374,44.7314344,./maps_data/ الضالع.png
105783, العوابل, town,13.837545,44.864307,./maps_data/ العوابل.png
105784, قعطبة, town,13.8524497,44.7034962,./maps_data/ قعطبة.png
105785, ماوية, town,13.582945,44.347678,./maps_data/ ماوية.png
105787, المسيمير, town,13.4434716,44.6154711,./maps_data/ المسيمير.png
105788, الراهدة, town,13.377932500000002,44.3016659,./maps_data/ الراهدة.png
105789, حيفان, town,13.3178854,44.27217460000001,./maps_data/ حيفان.png
105790, الدمنة, town,13.453350899999998,44.1810772,./maps_data/ الدمنة.png
105791, المسراخ, town,13.461658300000002,44.0207109,./maps_data/ المسراخ.png
105793, الشقيراء, town,13.1343381,43.786364,./maps_data/ الشقيراء.png
105794, الخوخة, town,13.8061801,43.2493674,./maps_data/ الخوخة.png
105795, بيت السيد, town,15.504503,44.415007,./maps_data/ بيت السيد.png
105797, خمر, town,15.988269699999998,43.9534903,./maps_data/ خمر.png
105798, ذيبين, town,15.977123,44.129167,./maps_data/ ذيبين.png
105799, حبابة, town,15.544184,43.875632,./maps_data/ حبابة.png
105800, ثلاء, town,15.574357,43.901281,./maps_data/ ثلاء.png
105801, الخميس, town,15.185327,43.511216,./maps_data/ الخميس.png
105802, مافود, town,15.3441142,47.2512875,./maps_data/ مافود.png
105804, عمد, town,15.3104932,47.98226010000001,./maps_data/ عمد.png
105805, حريضة, town,15.5967561,48.185049,./maps_data/ حريضة.png
105806, شبام, town,15.926697400000002,48.6262491,./maps_data/ شبام.png
105807, الحرجة, town,15.488692000000002,44.66573,./maps_data/ الحرجة.png
105809, حصن بني سعد, town,16.2728815,44.4773258,./maps_data/ حصن بني سعد.png
105814, مدغل, town,15.598585,45.040132,./maps_data/ مدغل.png
105816, جحانة, town,15.226282,44.482444,./maps_data/ جحانة.png
105817, سيان, town,15.1718281,44.3254275,./maps_data/ سيان.png
105818, غيمان, town,15.272787,44.35408579999999,./maps_data/ غيمان.png
105820, الروضة, town,15.430860199999998,44.2232895,./maps_data/ الروضة.png
105821, الجمعة, town,14.7369144,43.9643281,./maps_data/ الجمعة.png
105822, الكدن, town,15.2491797,43.2552401,./maps_data/ الكدن.png
105823, الزيدية, town,15.328507,43.00812,./maps_data/ الزيدية.png
105824, المنيرة, town,15.323288,42.9302458,./maps_data/ المنيرة.png
105825, المغربة, town,15.877222,43.666667,./maps_data/ المغربة.png
105826, السودة, town,15.958611,43.780833,./maps_data/ السودة.png
105828, كحلان, town,15.733087,43.719024,./maps_data/ كحلان.png
105829, مبين, town,15.737726,43.557007,./maps_data/ مبين.png
105830, ظليمة حبور, town,16.050972,43.706991,./maps_data/ ظليمة حبور.png
105832, الخور, town,25.6837333,51.5031212,./maps_data/ الخور.png
105833, السوق الجديد, town,15.825640300000002,44.06204870000001,./maps_data/ السوق الجديد.png
105834, ريدة, town,15.814206,44.040852,./maps_data/ ريدة.png
105835, الحزم, town,16.163372,44.776557,./maps_data/ الحزم.png
105836, شهارة, town,16.1844225,43.7025359,./maps_data/ شهارة.png
105837, حوث, town,16.231137,43.968536,./maps_data/ حوث.png
105839, الحميدات, town,16.4845436,44.4292373,./maps_data/ الحميدات.png
105840, الحرف, town,16.363946,44.094213,./maps_data/ الحرف.png
105842, القفلة, town,16.3187172,43.7678514,./maps_data/ القفلة.png
105843, المدان, town,16.223843,43.643615,./maps_data/ المدان.png
105844, عزلة الدير, town,16.271720300000002,43.1047732,./maps_data/ عزلة الدير.png
105845, Balete, town,11.5564171,122.3797001,./maps_data/ Balete.png
105846, Malangbong, town,-7.0603341,108.0870106,./maps_data/ Malangbong.png
105847, Talisay, city,10.7372649,122.9673325,./maps_data/ Talisay.png
105848, Thelijjawila, town,6.0246279000000005,80.495568,./maps_data/ Thelijjawila.png
105849, Selong, town,-8.6460994,116.54062140000002,./maps_data/ Selong.png
105850, พระแสง, town,8.5707851,99.2474637,./maps_data/ พระแสง.png
105851, เวียงสา, town,8.636063,99.366539,./maps_data/ เวียงสา.png
105852, สามพราน, town,13.730260500000002,100.2126022,./maps_data/ สามพราน.png
105853, ស្រុក​កំពង់ត្រាច, town,10.5571918,104.4678996,./maps_data/ ស្រុក​កំពង់ត្រាច.png
105854, 葛店镇, town,30.5366784,114.635543,./maps_data/ 葛店镇.png
105855, 庙岭镇, town,30.445606800000004,114.61515459999998,./maps_data/ 庙岭镇.png
105856, Gazli, town,40.1338971,63.4540161,./maps_data/ Gazli.png
105857, Merak, town,-5.9330944,106.0010361,./maps_data/ Merak.png
105858, حقل, town,29.2864157,34.946911799999995,./maps_data/ حقل.png
105859, الحايط, town,25.9859762,40.4719727,./maps_data/ الحايط.png
105860, الزلفي, town,26.2995806,44.8151967,./maps_data/ الزلفي.png
105861, بريدة, city,26.331667,43.971667,./maps_data/ بريدة.png
105862, الشماسية, town,26.318333000000006,44.263056,./maps_data/ الشماسية.png
105863, المذنب, city,25.859607500000006,44.2209063,./maps_data/ المذنب.png
105864, الفويلق, town,26.439444,43.266667,./maps_data/ الفويلق.png
105865, حرمة, town,25.9246207,45.3318172,./maps_data/ حرمة.png
105867, المجمعة, town,25.903889000000003,45.345556,./maps_data/ المجمعة.png
105868, تثليث, town,19.533333,43.5,./maps_data/ تثليث.png
105869, القويعية, town,24.065056,45.284381,./maps_data/ القويعية.png
105870, الرويضة, town,23.7618986,44.75848189999999,./maps_data/ الرويضة.png
105871, المويه, town,22.433333,41.759167,./maps_data/ المويه.png
105872, ظلم, town,22.7233712,42.1687062,./maps_data/ ظلم.png
105873, تربة, town,21.2180221,41.6334961,./maps_data/ تربة.png
105874, الخرمة, town,21.9080694,42.031793,./maps_data/ الخرمة.png
105875, الجموم, town,21.6222452,39.6995259,./maps_data/ الجموم.png
105876, الطائف, city,21.270278,40.415833,./maps_data/ الطائف.png
105877, بيشة, town,20.0,42.6,./maps_data/ بيشة.png
105878, تبالة, town,20.0135631,42.2164511,./maps_data/ تبالة.png
105879, النماص, town,19.116667,42.133333,./maps_data/ النماص.png
105880, المجاردة, town,19.123611,41.911111,./maps_data/ المجاردة.png
105881, محايل, town,18.546389,42.048889,./maps_data/ محايل.png
105882, سبت العلاية, town,19.5635564,41.9581059,./maps_data/ سبت العلاية.png
105883, بلجرشي, town,19.859444,41.557222,./maps_data/ بلجرشي.png
105884, المخواه, town,19.779444,41.435556,./maps_data/ المخواه.png
105885, عشيرة, town,21.7575,40.651944,./maps_data/ عشيرة.png
105886, الحناكية, town,24.879722,40.515278,./maps_data/ الحناكية.png
105887, الدوادمي, town,24.494167,44.383333,./maps_data/ الدوادمي.png
105888, عرجاء, town,24.7242399,44.2905736,./maps_data/ عرجاء.png
105889, ساجر, town,25.180556,44.600278,./maps_data/ ساجر.png
105890, شقراء, town,25.248333,45.252778,./maps_data/ شقراء.png
105892, ثادق القديمة, town,25.296389,45.865833,./maps_data/ ثادق القديمة.png
105893, حوطة سدير, town,25.5976844,45.6179264,./maps_data/ حوطة سدير.png
105894, حريملاء, town,25.126667,46.1225,./maps_data/ حريملاء.png
105895, رماح, town,25.569722,47.156667,./maps_data/ رماح.png
105896, عرقة, town,24.690117,46.60084370000001,./maps_data/ عرقة.png
105897, الدرعية, town,24.7483029,46.5717678,./maps_data/ الدرعية.png
105898, ضرما, town,24.59551,46.133743,./maps_data/ ضرما.png
105899, الدلم, town,23.996944,47.165,./maps_data/ الدلم.png
105900, الضبيعة, town,24.098102,47.17225,./maps_data/ الضبيعة.png
105901, الهياثم, town,24.16555,47.237637,./maps_data/ الهياثم.png
105902, نعجان, town,24.077461,47.165904,./maps_data/ نعجان.png
105903, اليمامة, town,24.182111,47.327748,./maps_data/ اليمامة.png
105904, الحلوة, town,23.4516584,46.8071362,./maps_data/ الحلوة.png
105905, ليلى, town,22.2929472,46.71715579999999,./maps_data/ ليلى.png
105906, صوير, town,30.117261,40.38881129999999,./maps_data/ صوير.png
105907, دومة الجندل, town,29.8059219,39.866726,./maps_data/ دومة الجندل.png
105908, سكاكا, city,29.978400800000006,40.2047701,./maps_data/ سكاكا.png
105909, العيساوية, town,30.716111,37.98027800000001,./maps_data/ العيساوية.png
105910, الفياض, town,30.605348,38.099946,./maps_data/ الفياض.png
105911, القريات, city,31.333333000000003,37.341944,./maps_data/ القريات.png
105912, الحديثة, town,31.454449,37.158921,./maps_data/ الحديثة.png
105913, طبرجل, town,30.5006757,38.216505100000006,./maps_data/ طبرجل.png
105914, طريف, town,31.6725877,38.6615532,./maps_data/ طريف.png
105915, العويقيلة, town,30.3632535,42.2382351,./maps_data/ العويقيلة.png
105916, عرعر, city,30.981553100000006,41.0164788,./maps_data/ عرعر.png
105917, البديع, town,16.993056,42.773056,./maps_data/ البديع.png
105918, النعيرية, town,27.4716221,48.4841282,./maps_data/ النعيرية.png
105919, مليجة, town,27.272778,48.425,./maps_data/ مليجة.png
105920, الثقبة, city,26.260217,50.20486,./maps_data/ الثقبة.png
105921, 鸡街乡, town,23.5260749,104.8164292,./maps_data/ 鸡街乡.png
105922, القارة, town,25.416667,49.666667,./maps_data/ القارة.png
105923, التويثير, town,25.4196128,49.6903711,./maps_data/ التويثير.png
105924, العيون, town,25.6000072,49.5692977,./maps_data/ العيون.png
105925, العمران, town,25.4217659,49.7161902,./maps_data/ العمران.png
105926, المركز, town,25.3952112,49.73163140000001,./maps_data/ المركز.png
105927, الطرف, town,25.36232,49.727572,./maps_data/ الطرف.png
105928, المراح, town,25.5834104,49.5932894,./maps_data/ المراح.png
105929, الكلابية, town,25.431111,49.668333,./maps_data/ الكلابية.png
105930, الحليلة, town,25.437828600000003,49.65679650000001,./maps_data/ الحليلة.png
105931, البطالية, town,25.434185600000006,49.6312731,./maps_data/ البطالية.png
105932, الجفر, town,25.377358,49.72154000000001,./maps_data/ الجفر.png
105933, الجرن, town,25.513372,49.620911,./maps_data/ الجرن.png
105934, الفضول, town,25.366667,49.68333300000001,./maps_data/ الفضول.png
105935, الجبيل, town,25.407952,49.66163570000001,./maps_data/ الجبيل.png
105936, جليجلة, town,25.5030213,49.6000858,./maps_data/ جليجلة.png
105937, الجشة, town,25.387592,49.75252800000001,./maps_data/ الجشة.png
105938, المطيرفي, town,25.4790667,49.5581553,./maps_data/ المطيرفي.png
105939, المنيزلة, town,25.3788289,49.669424,./maps_data/ المنيزلة.png
105940, القرين, town,25.4829828,49.5974359,./maps_data/ القرين.png
105941, الشقيق, town,25.4829456,49.57579570000001,./maps_data/ الشقيق.png
105942, تربة, town,28.2595753,42.9203796,./maps_data/ تربة.png
105943, القاعد, town,27.846003000000003,41.7249917,./maps_data/ القاعد.png
105945, روضة هباس, town,29.1503987,44.3114119,./maps_data/ روضة هباس.png
105946, الأجفر, town,27.4725,42.998889,./maps_data/ الأجفر.png
105947, الشنان, town,27.175,42.443889,./maps_data/ الشنان.png
105948, المليداء, town,26.318283,43.7807599,./maps_data/ المليداء.png
105949, البكيرية, town,26.1396183,43.6577035,./maps_data/ البكيرية.png
105950, عيون الجواء, town,26.4945913,43.6377184,./maps_data/ عيون الجواء.png
105951, عين ابن فهيد, town,26.776782,44.2138631,./maps_data/ عين ابن فهيد.png
105952, الخبراء, town,26.0700478,43.6244595,./maps_data/ الخبراء.png
105953, الدليمية, town,26.028611,43.274167,./maps_data/ الدليمية.png
105954, النبهانية, town,25.86088,43.0663784,./maps_data/ النبهانية.png
105955, الإثنين, town,18.0395887,42.745778,./maps_data/ الإثنين.png
105956, السفانية, town,27.970833,48.7300322,./maps_data/ السفانية.png
105957, رحيمة, town,26.707417,50.067352,./maps_data/ رحيمة.png
105958, أم الساهك, town,26.6529206,49.914093,./maps_data/ أم الساهك.png
105959, الخويلدية, town,26.551389,49.990833,./maps_data/ الخويلدية.png
105960, التوبي, town,26.557778000000006,49.991667,./maps_data/ التوبي.png
105961, الأوجام, town,26.562778,49.943889,./maps_data/ الأوجام.png
105962, الجارودية, town,26.541389,49.984722,./maps_data/ الجارودية.png
105963, القديح, town,26.568486,49.989134,./maps_data/ القديح.png
105964, تاروت, town,26.573301,50.04028,./maps_data/ تاروت.png
105965, مللاحة, town,26.5131833,49.9987555,./maps_data/ مللاحة.png
105966, الجش, town,26.504954,49.99930300000001,./maps_data/ الجش.png
105967, حلة محيش, town,26.538889,49.999444,./maps_data/ حلة محيش.png
105968, عنك, town,26.51959,50.02715,./maps_data/ عنك.png
105969, تمير, town,25.704434600000006,45.8677264,./maps_data/ تمير.png
105970, الأرطاوية, town,26.5063287,45.353878,./maps_data/ الأرطاوية.png
105971, الغاط, town,26.028611,44.950833,./maps_data/ الغاط.png
105972, جبة, town,28.0168538,40.95298820000001,./maps_data/ جبة.png
105973, تيماء, town,27.6225952,38.539257,./maps_data/ تيماء.png
105974, البدع, town,28.4841608,35.01411029999999,./maps_data/ البدع.png
105975, ضبا, town,27.351435,35.6908067,./maps_data/ ضبا.png
105976, الوجه, town,26.2444191,36.4532774,./maps_data/ الوجه.png
105977, بئر ابن هرماس, town,28.8699954,36.2577406,./maps_data/ بئر ابن هرماس.png
105978, حالة عمار, town,29.161944,36.075833,./maps_data/ حالة عمار.png
105979, الدرب, town,17.7334328,42.2500809,./maps_data/ الدرب.png
105981, المضايا, town,16.769851,42.731249,./maps_data/ المضايا.png
105982, مزهرة, town,16.826110999999994,42.733333,./maps_data/ مزهرة.png
105983, المطعن, town,17.427518799999998,42.5472534,./maps_data/ المطعن.png
105984, مسلية, town,17.459875,42.557204,./maps_data/ مسلية.png
105985, بحر أبوسكينة, town,18.3372839,41.9118076,./maps_data/ بحر أبوسكينة.png
105986, Al Rayyan, town,16.966667,42.7,./maps_data/ Al Rayyan.png
105987, الريان, town,16.977320000000002,42.6957085,./maps_data/ الريان.png
105988, حاكمه ابوعريش, town,17.009972,42.834281,./maps_data/ حاكمه ابوعريش.png
105989, الظبية, town,17.117877,42.666936,./maps_data/ الظبية.png
105990, ضمد, town,17.104257999999998,42.781549,./maps_data/ ضمد.png
105991, الحسيني, town,17.1513942,42.6834188,./maps_data/ الحسيني.png
105992, صبيا, town,17.150697100000002,42.623512,./maps_data/ صبيا.png
105993, العارضة, town,17.039351999999994,43.085903,./maps_data/ العارضة.png
105994, الشقيري, town,17.132150600000006,42.8268685,./maps_data/ الشقيري.png
105995, العيدابي, town,17.2352185,42.9404299,./maps_data/ العيدابي.png
105996, الخوبة, town,16.788709,43.22185800000001,./maps_data/ الخوبة.png
105997, اللقية, town,16.660663,43.039906,./maps_data/ اللقية.png
105998, صامطة, town,16.597222,42.943889,./maps_data/ صامطة.png
105999, الركوبة, town,16.621389,42.966389,./maps_data/ الركوبة.png
106000, الجاظع, town,16.644167000000003,42.994722,./maps_data/ الجاظع.png
106001, الجرادية, town,16.58,42.911944,./maps_data/ الجرادية.png
106002, الطوال, town,16.529417000000002,42.967625,./maps_data/ الطوال.png
106003, ظهران الجنوب, town,17.6617883,43.5194305,./maps_data/ ظهران الجنوب.png
106005, الهدا, town,21.368611,40.284722,./maps_data/ الهدا.png
106006, بحرة, town,21.4012724,39.4500096,./maps_data/ بحرة.png
106007, المندق, town,20.1105064,41.2828451,./maps_data/ المندق.png
106008, الليث, town,20.1451486,40.2701391,./maps_data/ الليث.png
106009, مهد الذهب, town,23.499586800000003,40.8791554,./maps_data/ مهد الذهب.png
106010, بدر, town,23.78,38.7907409,./maps_data/ بدر.png
106011, Молодёжный, town,50.722263,73.53130300000002,./maps_data/ Молодёжный.png
106012, Bamunaakotuwa, town,7.5716135,80.24886190000002,./maps_data/ Bamunaakotuwa.png
106013, Alawwa, town,7.294015600000002,80.2392415,./maps_data/ Alawwa.png
106014, Paadeniya, town,7.6557189,80.2209338,./maps_data/ Paadeniya.png
106015, 八吉府街, town,30.6597875,114.4555905,./maps_data/ 八吉府街.png
106016, Maho, town,7.823914299999998,80.273567,./maps_data/ Maho.png
106017, 天兴乡, town,30.6766937,114.4108169,./maps_data/ 天兴乡.png
106018, Մեծամոր, town,40.144358200000006,44.1192082,./maps_data/ Մեծամոր.png
106019, Giritale, town,8.0003231,80.9245186,./maps_data/ Giritale.png
106020, Дунай, town,42.8841116,132.3585843,./maps_data/ Дунай.png
106021, Jarqo‘rg‘on, town,37.5154598,67.4175016,./maps_data/ Jarqo‘rg‘on.png
106022, Магнитогорск, city,53.4242184,58.983136,./maps_data/ Магнитогорск.png
106023, Kiblawan, town,6.6214265,125.2578941,./maps_data/ Kiblawan.png
106024, Chavakachcheri, town,9.657901400000002,80.16430759999999,./maps_data/ Chavakachcheri.png
106025, Navatkuli, town,9.6626751,80.08318929999999,./maps_data/ Navatkuli.png
106026, Tarapith, town,24.1181801,87.7960437,./maps_data/ Tarapith.png
106027, 福津市, city,33.7668264,130.4913329,./maps_data/ 福津市.png
106028, โพหัก, town,13.6425263,100.0233443,./maps_data/ โพหัก.png
106029, Chadachana, town,17.3124343,75.6606747,./maps_data/ Chadachana.png
106030, 因远镇, town,23.4056697,101.8492205,./maps_data/ 因远镇.png
106031, 연안읍, town,37.9075884,126.1602107,./maps_data/ 연안읍.png
106032, Timika, city,-4.5481052,136.889884,./maps_data/ Timika.png
106033, Tembagapura, town,-4.1424056,137.0906667,./maps_data/ Tembagapura.png
106034, Abepura, town,-2.6160972,140.6730139,./maps_data/ Abepura.png
106035, นครไทย, town,17.101263600000006,100.8372931,./maps_data/ นครไทย.png
106036, 那诺乡, town,23.3865841,102.1167644,./maps_data/ 那诺乡.png
106037, 羊街乡, town,23.4408455,102.0545637,./maps_data/ 羊街乡.png
106038, 阿木尔镇, town,52.8524428,123.1563148,./maps_data/ 阿木尔镇.png
106039, Заринск, town,53.707915,84.9348606,./maps_data/ Заринск.png
106040, Rawathawatta, town,6.7879337,79.8851587,./maps_data/ Rawathawatta.png
106041, ليوا, town,23.1358335,53.78810479999999,./maps_data/ ليوا.png
106042, Madurai, city,9.9261153,78.1140983,./maps_data/ Madurai.png
106043, Сосновка, town,56.2573802,51.2842677,./maps_data/ Сосновка.png
106044, Pare-Pare, city,-4.0057055,119.6236101,./maps_data/ Pare-Pare.png
106045, Власиха, town,53.2982076,83.57783609999998,./maps_data/ Власиха.png
106046, Laur, town,15.5797175,121.1865246,./maps_data/ Laur.png
106047, 中壢區, town,24.9653531,121.224926,./maps_data/ 中壢區.png
106048, Первомайский, town,51.669296,115.638283,./maps_data/ Первомайский.png
106049, Hatti, town,16.2023654,76.6680329,./maps_data/ Hatti.png
106050, Vodnik, town,42.4351815,59.5384327,./maps_data/ Vodnik.png
106051, Shedabal, town,16.691184900000003,74.760589,./maps_data/ Shedabal.png
106052, Do'stobod, town,40.8586646,68.9290118,./maps_data/ Do'stobod.png
106053, Boyovut, town,40.2803,69.02609609999999,./maps_data/ Boyovut.png
106054, الرحبة, town,24.6260597,54.7135127,./maps_data/ الرحبة.png
106055, Chopan, town,24.5178532,83.02347409999999,./maps_data/ Chopan.png
106056, Robertsganj, town,24.6897879,83.0653136,./maps_data/ Robertsganj.png
106057, Ranikor, town,25.2106682,91.2546962,./maps_data/ Ranikor.png
106058, Mawshynrut, town,25.6614608,91.0617256,./maps_data/ Mawshynrut.png
106059, Pynursla, town,25.3090785,91.9005116,./maps_data/ Pynursla.png
106062, Selsella, town,25.6391885,90.0415585,./maps_data/ Selsella.png
106063, Garobandha, town,25.578419,90.021602,./maps_data/ Garobandha.png
106065, Ghorawal, town,24.7534535,82.779558,./maps_data/ Ghorawal.png
106066, Mariahu, town,25.6047132,82.6033192,./maps_data/ Mariahu.png
106067, Bhadohi, town,25.3941093,82.57014649999998,./maps_data/ Bhadohi.png
106068, Sultanpur, city,26.2588602,82.07168929999997,./maps_data/ Sultanpur.png
106069, Mandi Bamora, town,24.0584927,78.0803715,./maps_data/ Mandi Bamora.png
106070, Madhubani, town,26.357794,86.069304,./maps_data/ Madhubani.png
106071, Hupari, town,16.617590300000003,74.40673879999999,./maps_data/ Hupari.png
106072, Kulpahar, town,25.3185145,79.640813,./maps_data/ Kulpahar.png
106073, Nowgaon, town,25.0632203,79.44028809999998,./maps_data/ Nowgaon.png
106074, Rath, town,25.5936555,79.5665356,./maps_data/ Rath.png
106075, Charkhari, town,25.4020487,79.750268,./maps_data/ Charkhari.png
106076, Jalaun, town,26.1431896,79.33356850000001,./maps_data/ Jalaun.png
106077, Auraiya, town,26.4645159,79.5101594,./maps_data/ Auraiya.png
106078, Dungalpitiya, town,7.146910000000001,79.8320301,./maps_data/ Dungalpitiya.png
106079, Kapungoda, town,7.1189172,79.841015,./maps_data/ Kapungoda.png
106080, Farrukhabad, town,27.3895336,79.5790994,./maps_data/ Farrukhabad.png
106081, Gursahaiganj, town,27.1178018,79.7316338,./maps_data/ Gursahaiganj.png
106082, Bhongaon, town,27.2552259,79.18176700000002,./maps_data/ Bhongaon.png
106083, Mainpuri, city,27.2270677,79.0271702,./maps_data/ Mainpuri.png
106084, Chhibramau, town,27.1493493,79.50306020000002,./maps_data/ Chhibramau.png
106085, Sikandra Rao, town,27.68798,78.38055990000002,./maps_data/ Sikandra Rao.png
106086, Aliganj, town,27.494480100000004,79.17082950000002,./maps_data/ Aliganj.png
106087, Hathras, city,27.597588800000004,78.0545477,./maps_data/ Hathras.png
106088, 三岔河镇, town,25.8873831,100.9996672,./maps_data/ 三岔河镇.png
106089, 三台乡, town,26.0111123,101.0778466,./maps_data/ 三台乡.png
106090, Sadabad, town,27.4390229,78.0359173,./maps_data/ Sadabad.png
106091, 弥兴镇, town,25.403000000000002,101.156,./maps_data/ 弥兴镇.png
106092, 大河口乡, town,25.4594354,101.0247729,./maps_data/ 大河口乡.png
106093, 前场镇, town,25.5248388,101.3750164,./maps_data/ 前场镇.png
106095, 昙华乡, town,25.9491556,101.2266605,./maps_data/ 昙华乡.png
106096, 桂花镇, town,26.0856362,101.2843565,./maps_data/ 桂花镇.png
106097, Pinrang, town,-3.7932568,119.6528692,./maps_data/ Pinrang.png
106098, 부전읍, town,40.4879072,127.6190647,./maps_data/ 부전읍.png
106099, 신흥읍, town,40.1919631,127.5578704,./maps_data/ 신흥읍.png
106100, Jahangirabad, town,28.4033531,78.10495379999998,./maps_data/ Jahangirabad.png
106101, Anupshahr, town,28.3573482,78.2678725,./maps_data/ Anupshahr.png
106102, Raha, town,-4.8315594000000015,122.716274,./maps_data/ Raha.png
106103, Malili, town,-2.6190658,121.1163447,./maps_data/ Malili.png
106104, Balangnipa, town,-5.1259759,120.2461155,./maps_data/ Balangnipa.png
106105, Labuan Bajo, town,-8.4944159,119.885497,./maps_data/ Labuan Bajo.png
106106, Kecamatan Praya Barat, town,-8.7275828,116.2403833,./maps_data/ Kecamatan Praya Barat.png
106107, Kecamatan Sekotong, town,-8.7662428,116.08619509999998,./maps_data/ Kecamatan Sekotong.png
106108, Kecamatan Janapria, town,-8.6949074,116.3938308,./maps_data/ Kecamatan Janapria.png
106109, Kecamatan Sakra, town,-8.6725801,116.48707659999998,./maps_data/ Kecamatan Sakra.png
106110, Kecamatan Lingsar, town,-8.569377099999999,116.185747,./maps_data/ Kecamatan Lingsar.png
106111, Praya, town,-8.7157359,116.27062820000002,./maps_data/ Praya.png
106112, Kecamatan Sukamulia, town,-8.6297109,116.5164528,./maps_data/ Kecamatan Sukamulia.png
106113, Kecamatan Terara, town,-8.6516783,116.4232046,./maps_data/ Kecamatan Terara.png
106114, Kecamatan Wanasaba, town,-8.5654262,116.5819528,./maps_data/ Kecamatan Wanasaba.png
106115, Kecamatan Suralaga, town,-8.5965507,116.52594270000002,./maps_data/ Kecamatan Suralaga.png
106116, Kecamatan Jerowaru, town,-8.7830638,116.4727319,./maps_data/ Kecamatan Jerowaru.png
106117, Kecamatan Pringgarata, town,-8.6150268,116.2472486,./maps_data/ Kecamatan Pringgarata.png
106118, Kecamatan Praya Barat Daya, town,-8.766684,116.2029122,./maps_data/ Kecamatan Praya Barat Daya.png
106119, Mujur, town,-8.7548081,116.3618006,./maps_data/ Mujur.png
106120, Kecamatan Aikmel, town,-8.565201,116.5257496,./maps_data/ Kecamatan Aikmel.png
106121, Kecamatan Kuripan, town,-8.6726945,116.168546,./maps_data/ Kecamatan Kuripan.png
106122, Kecamatan Lembar, town,-8.7245705,116.0904328,./maps_data/ Kecamatan Lembar.png
106123, Tanjung, town,-8.3662574,116.15806770000002,./maps_data/ Tanjung.png
106124, Kecamatan Labuapi, town,-8.6295752,116.1219854,./maps_data/ Kecamatan Labuapi.png
106125, Kecamatan Sikur, town,-8.611526300000001,116.4219103,./maps_data/ Kecamatan Sikur.png
106126, Kendari, city,-3.9918068,122.5180066,./maps_data/ Kendari.png
106127, วังทอง, town,16.8244029,100.4289604,./maps_data/ วังทอง.png
106128, 镇赉县, city,45.8449852,123.1976314,./maps_data/ 镇赉县.png
106129, Ngô Đồng, town,20.2819074,106.4443788,./maps_data/ Ngô Đồng.png
106130, Pakil, town,14.3807742,121.4786229,./maps_data/ Pakil.png
106131, 大具乡, town,27.3051728,100.2501938,./maps_data/ 大具乡.png
106132, الجهراء, city,29.3474636,47.6722054,./maps_data/ الجهراء.png
106133, ร่วมจิต, town,17.7080111,100.3484643,./maps_data/ ร่วมจิต.png
106134, Palopo, city,-2.9996306,120.1920679,./maps_data/ Palopo.png
106135, Garhmuktesar, town,28.7883909,78.09032049999998,./maps_data/ Garhmuktesar.png
106136, Siyana, town,28.6277173,78.0599187,./maps_data/ Siyana.png
106137, Hapur, town,28.7299677,77.775499,./maps_data/ Hapur.png
106138, Каскелен, town,43.2022724,76.6245772,./maps_data/ Каскелен.png
106139, Кольцово, town,54.9367736,83.187139,./maps_data/ Кольцово.png
106140, แม่แจ่ม, town,18.4985181,98.363543,./maps_data/ แม่แจ่ม.png
106141, ဒါးပိန်, town,17.034424899999998,96.3687432,./maps_data/ ဒါးပိန်.png
106143, Корфовский, town,48.222679,135.058899,./maps_data/ Корфовский.png
106144, ကဝ, town,17.089173199999998,96.4603044,./maps_data/ ကဝ.png
106145, ဖောင်ကြီး, town,17.330669699999998,96.1729858,./maps_data/ ဖောင်ကြီး.png
106146, 者米拉祜族乡, town,22.7770767,102.696644,./maps_data/ 者米拉祜族乡.png
106147, 朱街镇, town,23.7471734,104.9005186,./maps_data/ 朱街镇.png
106148, 篆角乡, town,23.6113255,104.9286024,./maps_data/ 篆角乡.png
106149, Hatu-Udo, town,-9.1186239,125.5906361,./maps_data/ Hatu-Udo.png
106150, Kemalpaşa, town,41.4810826,41.527053,./maps_data/ Kemalpaşa.png
106151, Мамлютка, town,54.934776,68.545174,./maps_data/ Мамлютка.png
106152, 伊勢市, city,34.5037251,136.726303,./maps_data/ 伊勢市.png
106153, Silao, town,25.0809002,85.4278348,./maps_data/ Silao.png
106154, สระโบสถ์, town,15.210032,100.8292254,./maps_data/ สระโบสถ์.png
106155, น้ำปาด, town,17.729247,100.6853176,./maps_data/ น้ำปาด.png
106156, Tundla, town,27.2132859,78.23711170000001,./maps_data/ Tundla.png
106157, พนัสนิคม, town,13.4494823,101.1804678,./maps_data/ พนัสนิคม.png
106158, Анна, town,51.488499,40.417393,./maps_data/ Анна.png
106159, Firozabad, town,27.152798600000004,78.3991439,./maps_data/ Firozabad.png
106160, Shamsabad, town,27.017073600000003,78.123465,./maps_data/ Shamsabad.png
106161, Mant, town,27.6344839,77.711505,./maps_data/ Mant.png
106162, Sohna, town,28.2459908,77.06709920000002,./maps_data/ Sohna.png
106163, Nuh, town,28.1033372,77.0047993,./maps_data/ Nuh.png
106164, 高梁市, city,34.7908975,133.6169111,./maps_data/ 高梁市.png
106165, Karang Tinggi, town,-3.7478514,102.4271231,./maps_data/ Karang Tinggi.png
106166, Pandan, town,1.6822484,98.8234292,./maps_data/ Pandan.png
106167, Negeri Lama, town,2.3146591,100.0894424,./maps_data/ Negeri Lama.png
106168, Pangkalan Brandan, town,4.0183637,98.2862077,./maps_data/ Pangkalan Brandan.png
106169, Tanjung Balai Karimun, town,1.0002709,103.4284711,./maps_data/ Tanjung Balai Karimun.png
106170, Indrapura, town,3.2845415,99.3694726,./maps_data/ Indrapura.png
106171, Sei Piring, town,2.7174305,99.6146556,./maps_data/ Sei Piring.png
106172, Saribu Dolok, town,2.938792,98.6115097,./maps_data/ Saribu Dolok.png
106173, Natal, town,0.5566449,99.1134353,./maps_data/ Natal.png
106174, Aek Kanopan, town,2.56941,99.6533191,./maps_data/ Aek Kanopan.png
106175, Blambangan Umpu, town,-4.5087244,104.5127821,./maps_data/ Blambangan Umpu.png
106176, Gunung Sugih, town,-4.9735187000000005,105.2188707,./maps_data/ Gunung Sugih.png
106177, Sei Berombang, town,2.6121198,100.1239535,./maps_data/ Sei Berombang.png
106178, Tanjung Pandan, town,-2.7422808,107.6544753,./maps_data/ Tanjung Pandan.png
106179, Tanjung Beringin, town,3.4939326,99.1943275,./maps_data/ Tanjung Beringin.png
106180, Ranai, town,3.93829,108.380066,./maps_data/ Ranai.png
106181, Tiga Lingga, town,2.9177534,98.21073,./maps_data/ Tiga Lingga.png
106182, Tiganderket, town,3.1356193,98.35855490000002,./maps_data/ Tiganderket.png
106183, Muara Tebo, town,-1.4908324,102.4451112,./maps_data/ Muara Tebo.png
106184, Tanjung Tiram, town,3.222962,99.5820185,./maps_data/ Tanjung Tiram.png
106185, Kotapinang, town,1.8945101,100.0910863,./maps_data/ Kotapinang.png
106186, Indralaya, town,-3.244657,104.6714205,./maps_data/ Indralaya.png
106187, Bengkalis Kota, town,1.4714424,102.110528,./maps_data/ Bengkalis Kota.png
106188, Serbelawan, town,3.1210109,99.1466299,./maps_data/ Serbelawan.png
106189, Langga Payung, town,1.7259609,99.9620872,./maps_data/ Langga Payung.png
106190, Sidikalang, town,2.7584791,98.2985156,./maps_data/ Sidikalang.png
106191, Sungailiat, town,-1.8477275,106.1191993,./maps_data/ Sungailiat.png
106192, Tanjung Leidong, town,2.7545618,99.9789173,./maps_data/ Tanjung Leidong.png
106193, Talang Jauh, town,-1.6024856,103.6204352,./maps_data/ Talang Jauh.png
106194, Rantau Prapat, city,2.096023,99.8298439,./maps_data/ Rantau Prapat.png
106195, Baturaja, town,-4.122559,104.1708729,./maps_data/ Baturaja.png
106196, Subulussalam, city,2.6403146,98.0052459,./maps_data/ Subulussalam.png
106197, Parapat, town,2.6617589,98.93918,./maps_data/ Parapat.png
106198, Muara Rupit, town,-2.7227927000000003,102.9095858,./maps_data/ Muara Rupit.png
106199, Painan, town,-1.3513815,100.5747538,./maps_data/ Painan.png
106200, Perbaungan, town,3.5664929,98.9571864,./maps_data/ Perbaungan.png
106201, Lima Puluh, town,3.1698365,99.418355,./maps_data/ Lima Puluh.png
106202, Prabumulih, city,-3.4382687999999995,104.2310181,./maps_data/ Prabumulih.png
106203, Teluk Dalam, town,0.5694839,97.8196872,./maps_data/ Teluk Dalam.png
106204, Koba, town,-2.4892149,106.4080591,./maps_data/ Koba.png
106205, Bagan Batu, town,1.7046191000000002,100.4015874,./maps_data/ Bagan Batu.png
106206, Sungai Asam, town,-1.5975301000000002,103.6145376,./maps_data/ Sungai Asam.png
106207, Sialang Buah, town,3.5589556000000004,99.1137162,./maps_data/ Sialang Buah.png
106208, Paringin, town,-2.3368967,115.4599443,./maps_data/ Paringin.png
106209, Malinau Kota, town,3.5869557,116.6230829,./maps_data/ Malinau Kota.png
106210, Ujoh Bilang, town,0.5256009,115.2387043,./maps_data/ Ujoh Bilang.png
106211, Nanga Bulik, town,-2.1832028,111.4328759,./maps_data/ Nanga Bulik.png
106212, Kuala Kurun, town,-1.0983147,113.8648609,./maps_data/ Kuala Kurun.png
106213, Tanjung Redeb, town,2.1538651,117.4970133,./maps_data/ Tanjung Redeb.png
106214, Kabare, town,-0.060542999999999986,130.9901428,./maps_data/ Kabare.png
106215, Bade, town,-7.1683394,139.59174240000002,./maps_data/ Bade.png
106216, Temanggung, town,-7.316237700000001,110.1754504,./maps_data/ Temanggung.png
106217, Sarmi, town,-1.8546889,138.7492642,./maps_data/ Sarmi.png
106218, Kajen, town,-7.034529400000001,109.5765354,./maps_data/ Kajen.png
106219, Haurgeulis, town,-6.4603583,107.9432936,./maps_data/ Haurgeulis.png
106220, Waena, town,-2.5969254,140.63544050000002,./maps_data/ Waena.png
106221, Daruba, town,2.051459,128.2924851,./maps_data/ Daruba.png
106222, Kenyam, town,-4.601477,138.3836292,./maps_data/ Kenyam.png
106223, Banjar, city,-7.3695648,108.5415225,./maps_data/ Banjar.png
106224, Kepi, town,-6.53725,139.31456709999998,./maps_data/ Kepi.png
106225, Namlea, town,-3.2694734,127.0992432,./maps_data/ Namlea.png
106226, Sentani, city,-2.566079,140.5057435,./maps_data/ Sentani.png
106227, Enarotali, town,-3.9284498,136.3766675,./maps_data/ Enarotali.png
106228, Tigaraksa, town,-6.2691134,106.484353,./maps_data/ Tigaraksa.png
106229, Kolonodale, town,-1.9837014,121.3376454,./maps_data/ Kolonodale.png
106230, Kasonaweja, town,-2.3021175,138.03145580000003,./maps_data/ Kasonaweja.png
106231, Cilacap, city,-7.7267967,109.009662,./maps_data/ Cilacap.png
106232, Ciputat, town,-6.3060477,106.747746,./maps_data/ Ciputat.png
106233, Sofifi, town,0.734776,127.5760518,./maps_data/ Sofifi.png
106234, Wangon, town,-7.503977499999999,109.05009409999998,./maps_data/ Wangon.png
106235, Kaimana Kota, town,-3.6642872,133.7619247,./maps_data/ Kaimana Kota.png
106236, Gebang, town,-6.820937,108.7260129,./maps_data/ Gebang.png
106237, Serui Kota, town,-1.8816647,136.2405546,./maps_data/ Serui Kota.png
106238, Piru, town,-3.0617652,128.1949667,./maps_data/ Piru.png
106239, Karangsembung, town,-6.845138900000001,108.6500249,./maps_data/ Karangsembung.png
106240, Melonguane, town,4.0045379,126.68265759999998,./maps_data/ Melonguane.png
106241, Tempeh, town,-8.2098122,113.17064,./maps_data/ Tempeh.png
106242, Asembagus, town,-7.748329300000001,114.2142971,./maps_data/ Asembagus.png
106243, Jatiwangi, town,-6.734485899999999,108.2553794,./maps_data/ Jatiwangi.png
106244, Saumlaki, town,-7.974171099999999,131.3048761,./maps_data/ Saumlaki.png
106245, Fef, town,-0.8082858,132.43329359999998,./maps_data/ Fef.png
106246, Arjawinangun, town,-6.6468482,108.4092794,./maps_data/ Arjawinangun.png
106247, Klamono, town,-1.1251243999999998,131.4856135,./maps_data/ Klamono.png
106248, Buol, town,1.1586618999999998,121.4361959,./maps_data/ Buol.png
106249, Kertek, town,-7.389244500000001,109.9644581,./maps_data/ Kertek.png
106250, Dawuan, town,-6.7561798,108.1938386,./maps_data/ Dawuan.png
106251, Kalianda, town,-5.735684,105.595332,./maps_data/ Kalianda.png
106252, Karangwareng, town,-6.8676357,108.6446835,./maps_data/ Karangwareng.png
106253, Kutowinangun, town,-7.717291,109.7359927,./maps_data/ Kutowinangun.png
106254, Magetan, city,-7.6560219,111.3281197,./maps_data/ Magetan.png
106255, Pangenan, town,-6.8084777,108.6845592,./maps_data/ Pangenan.png
106256, Batur, town,-7.207409399999999,109.8264144,./maps_data/ Batur.png
106257, Klangenan, town,-6.682058500000001,108.4470156,./maps_data/ Klangenan.png
106258, Luwuk, town,-0.9528231,122.7880198,./maps_data/ Luwuk.png
106259, Pandaan, town,-7.6532322,112.6872932,./maps_data/ Pandaan.png
106260, Mogolaing, town,0.734106,124.3067678,./maps_data/ Mogolaing.png
106261, Barisan, town,-6.850286,108.807812,./maps_data/ Barisan.png
106262, Bobong, town,-1.946251,124.383942,./maps_data/ Bobong.png
106263, Panguragan, town,-6.622225200000001,108.4543351,./maps_data/ Panguragan.png
106264, Gombong, town,-7.607273599999999,109.5142347,./maps_data/ Gombong.png
106265, Astanajapura, town,-6.7903546000000015,108.61939209999998,./maps_data/ Astanajapura.png
106266, Palabuhanratu, town,-6.9882409,106.5503728,./maps_data/ Palabuhanratu.png
106267, Parigi, town,-7.6917683000000014,108.4952257,./maps_data/ Parigi.png
106268, Magelang, city,-7.4770747,110.21821640000002,./maps_data/ Magelang.png
106269, Dukupuntang, town,-6.7687320999999985,108.4149646,./maps_data/ Dukupuntang.png
106270, Purabaya, town,-7.1004428,106.8800346,./maps_data/ Purabaya.png
106271, Kuta, town,-8.7278354,115.1730049,./maps_data/ Kuta.png
106272, Cimahi, city,-6.8731527,107.54230990000002,./maps_data/ Cimahi.png
106273, Karangampel, town,-6.463546599999999,108.4402332,./maps_data/ Karangampel.png
106274, Klampok, town,-7.4568928,109.4452871,./maps_data/ Klampok.png
106275, Kadipaten, town,-6.7639727,108.1694122,./maps_data/ Kadipaten.png
106276, Gogagoman, town,0.7458808000000001,124.303016,./maps_data/ Gogagoman.png
106277, Sumpiuh, town,-7.6149185,109.3597595,./maps_data/ Sumpiuh.png
106278, Purwodadi, town,-7.0811262,110.91728729999998,./maps_data/ Purwodadi.png
106279, Karanganyar, town,-7.6313205,109.5734343,./maps_data/ Karanganyar.png
106280, Cijulang, town,-7.727243700000002,108.4727186,./maps_data/ Cijulang.png
106281, Sulang, town,-6.808830099999999,111.3807463,./maps_data/ Sulang.png
106282, Greged, town,-6.820195,108.5595098,./maps_data/ Greged.png
106283, Gempol, town,-6.7045979,108.4185871,./maps_data/ Gempol.png
106284, Cidolog, town,-7.316349099999999,106.83753490000002,./maps_data/ Cidolog.png
106285, Tegalbuleud, town,-7.4230113,106.7577985,./maps_data/ Tegalbuleud.png
106286, 総社市, city,34.6728162,133.7466763,./maps_data/ 総社市.png
106287, 浅口市, city,34.52791929999999,133.5849605,./maps_data/ 浅口市.png
106288, Aurangabad, city,24.7536696,84.3746725,./maps_data/ Aurangabad.png
106289, 府中市, city,34.5683141,133.2366327,./maps_data/ 府中市.png
106290, Barhi, town,24.305097,85.4203127,./maps_data/ Barhi.png
106291, Hazaribagh, city,23.9913521,85.3627839,./maps_data/ Hazaribagh.png
106292, Chatra, town,24.2056663,84.87077420000001,./maps_data/ Chatra.png
106293, Lohardaga, town,23.4313007,84.6783925,./maps_data/ Lohardaga.png
106294, 大崎上島町, town,34.235541999999995,132.893802,./maps_data/ 大崎上島町.png
106295, Sheikhpura, town,25.139584,85.8381996,./maps_data/ Sheikhpura.png
106296, Лангепас, town,61.247257,75.189278,./maps_data/ Лангепас.png
106297, บ้านท่าลี่, town,17.6244119,101.4215105,./maps_data/ บ้านท่าลี่.png
106298, ບໍ່ແຕນ, town,17.7780206,101.1686605,./maps_data/ ບໍ່ແຕນ.png
106299, ແກ່ນທ້າວ, town,17.7313169,101.394235,./maps_data/ ແກ່ນທ້າວ.png
106300, Sahibganj, town,25.2431716,87.63375979999998,./maps_data/ Sahibganj.png
106301, Dalkola, town,25.877093,87.8414703,./maps_data/ Dalkola.png
106302, Katihar, city,25.5433817,87.5690417,./maps_data/ Katihar.png
106303, Kishanganj, city,26.1014194,87.95077909999998,./maps_data/ Kishanganj.png
106304, 神石高原町, town,34.724022999999995,133.253549,./maps_data/ 神石高原町.png
106305, ທົ່ງມີໄຊ, town,18.4008167,101.1786961,./maps_data/ ທົ່ງມີໄຊ.png
106306, 抚远镇, city,48.3560283,134.28913909999997,./maps_data/ 抚远镇.png
106307, Aravakurichi, town,10.7770404,77.90940090000002,./maps_data/ Aravakurichi.png
106308, Щучье, town,55.208908,62.747772,./maps_data/ Щучье.png
106309, Sarmathura, town,26.5155043,77.37243769999998,./maps_data/ Sarmathura.png
106310, Manoharpur, town,27.2984347,75.9517562,./maps_data/ Manoharpur.png
106311, 智頭町, town,35.265053,134.226606,./maps_data/ 智頭町.png
106312, Boisar, town,19.8041943,72.7495538,./maps_data/ Boisar.png
106313, ເມືອງໂພນໄຊ, town,19.9486294,102.54488,./maps_data/ ເມືອງໂພນໄຊ.png
106314, ເມືອງປາກອູ, town,20.054237,102.2149095,./maps_data/ ເມືອງປາກອູ.png
106315, ເມືອງນ້ຳບາກ, town,20.6307572,102.462369,./maps_data/ ເມືອງນ້ຳບາກ.png
106316, ເມືອງຈອມເພັດ, town,19.9121619,102.117032,./maps_data/ ເມືອງຈອມເພັດ.png
106317, ພູກູດ, town,19.5423052,102.9004782,./maps_data/ ພູກູດ.png
106318, 矢掛町, town,34.62753529999999,133.5870434,./maps_data/ 矢掛町.png
106319, 吉備中央町, town,34.8635488,133.6932334,./maps_data/ 吉備中央町.png
106320, Chas, town,23.6327536,86.1751454,./maps_data/ Chas.png
106321, ຍອດອູ, town,22.1248203,101.7906479,./maps_data/ ຍອດອູ.png
106322, ບູນເໜືອ, town,21.6356702,101.9046302,./maps_data/ ບູນເໜືອ.png
106323, ບູນໃຕ້, town,21.3885969,101.9732747,./maps_data/ ບູນໃຕ້.png
106324, ເມືອງໃໝ່, town,21.1718308,102.7232947,./maps_data/ ເມືອງໃໝ່.png
106325, ເມືອງນາແລ, town,20.5322736,101.4471808,./maps_data/ ເມືອງນາແລ.png
106326, ວຽງພູຄາ, town,20.6779314,101.0612304,./maps_data/ ວຽງພູຄາ.png
106327, ເມືອງຫລາ, town,20.8686497,102.1196803,./maps_data/ ເມືອງຫລາ.png
106328, ແບງ, town,20.2986352,101.639979,./maps_data/ ແບງ.png
106329, ນາໝໍ້, town,20.9140732,101.7623125,./maps_data/ ນາໝໍ້.png
106330, ຮູນ, town,20.1469318,101.4603741,./maps_data/ ຮູນ.png
106331, Long Lama, town,3.7624271,114.40516540000002,./maps_data/ Long Lama.png
106332, แก้งคร้อ, town,16.112225199999994,102.2577258,./maps_data/ แก้งคร้อ.png
106333, نگار, town,29.8575198,56.80042420000001,./maps_data/ نگار.png
106334, 美咲町, town,34.9979682,133.9582915,./maps_data/ 美咲町.png
106335, 久米南町, town,34.9294035,133.9607996,./maps_data/ 久米南町.png
106336, ປາກທາ, town,20.1045535,100.5980369,./maps_data/ ປາກທາ.png
106337, ຜາອຸດົມ, town,20.0866135,100.8245915,./maps_data/ ຜາອຸດົມ.png
106338, ເມິງ, town,20.730251899999995,100.4587184,./maps_data/ ເມິງ.png
106339, ສົບເບົາ, town,20.7098709,104.3829913,./maps_data/ ສົບເບົາ.png
106340, ຊຳໃຕ້, town,19.9987144,104.6385597,./maps_data/ ຊຳໃຕ້.png
106341, ເມືອງແອດ, town,20.8203924,104.0057814,./maps_data/ ເມືອງແອດ.png
106342, ຫົວເມືອງ, town,20.1979714,103.8852827,./maps_data/ ຫົວເມືອງ.png
106343, Sini, town,22.7917416,85.94794420000002,./maps_data/ Sini.png
106344, Николаевка, town,48.5564779,134.77888869999998,./maps_data/ Николаевка.png
106345, ໜອງແຮດ, town,19.4978695,103.9856014,./maps_data/ ໜອງແຮດ.png
106346, Rourkela, city,22.2309255,84.8678705,./maps_data/ Rourkela.png
106348, Bankura, city,23.235601000000006,87.06602290000002,./maps_data/ Bankura.png
106349, Bishnupur, town,23.0758821,87.3146517,./maps_data/ Bishnupur.png
106350, G'azalkent, town,41.5655202,69.77525159999999,./maps_data/ G'azalkent.png
106351, Loyabad, town,23.7852439,86.3536239,./maps_data/ Loyabad.png
106352, 里庄町, town,34.5135567,133.5570068,./maps_data/ 里庄町.png
106353, Сорочинск, town,52.426971,53.154175,./maps_data/ Сорочинск.png
106354, 琴浦町, town,35.495189,133.692815,./maps_data/ 琴浦町.png
106355, 大山町, town,35.510719,133.496118,./maps_data/ 大山町.png
106356, 飯南町, town,34.999945000000004,132.713921,./maps_data/ 飯南町.png
106357, 川本町, town,34.9940656,132.4956033,./maps_data/ 川本町.png
106358, 邑南町, town,34.893904,132.437954,./maps_data/ 邑南町.png
106359, 美郷町, town,35.076685999999995,132.590561,./maps_data/ 美郷町.png
106360, Jamuria, city,23.7102317,87.0770495,./maps_data/ Jamuria.png
106361, Lachung, town,27.6897097,88.7425876,./maps_data/ Lachung.png
106362, Dudhnai, town,25.9827514,90.7824497,./maps_data/ Dudhnai.png
106363, ຫົງສາ, town,19.7068104,101.3408219,./maps_data/ ຫົງສາ.png
106364, ຊຽງຮ່ອນ, town,19.6295232,100.8149978,./maps_data/ ຊຽງຮ່ອນ.png
106365, ເງິນ, town,19.6176376,101.1124241,./maps_data/ ເງິນ.png
106366, ຄອບ, town,19.6954138,100.5511547,./maps_data/ ຄອບ.png
106367, ພຽງ, town,19.042727600000006,101.5089249,./maps_data/ ພຽງ.png
106368, Чегдомын, town,51.134487,133.035553,./maps_data/ Чегдомын.png
106369, Gregorio del Pilar, town,17.1460297,120.6118325,./maps_data/ Gregorio del Pilar.png
106370, 张老埠乡, town,32.0461607,115.7731082,./maps_data/ 张老埠乡.png
106371, فلج المعلا, town,25.350317,55.8537346,./maps_data/ فلج المعلا.png
106372, 黎集镇, town,31.9863527,115.84942859999998,./maps_data/ 黎集镇.png
106373, 分水亭镇, town,32.2028673,115.7888795,./maps_data/ 分水亭镇.png
106374, 陈淋子镇, town,31.8436292,115.8834233,./maps_data/ 陈淋子镇.png
106375, 郭陆滩镇, town,32.0332728,115.6584241,./maps_data/ 郭陆滩镇.png
106376, روابي, town,32.0118458,35.19019160000001,./maps_data/ روابي.png
106377, 南大桥乡, town,32.0936167,115.6808779,./maps_data/ 南大桥乡.png
106378, Rodríguez, town,14.731081,121.1454645,./maps_data/ Rodríguez.png
106379, Караменды, town,51.657513,64.222992,./maps_data/ Караменды.png
106380, 建德市, city,29.4755882,119.2749876,./maps_data/ 建德市.png
106381, Кушмурун, town,52.451801,64.615204,./maps_data/ Кушмурун.png
106382, Burhar, town,23.212035600000004,81.53616240000002,./maps_data/ Burhar.png
106383, Kymore, town,24.0494819,80.59108020000002,./maps_data/ Kymore.png
106384, Pali, town,23.3656853,81.0462381,./maps_data/ Pali.png
106385, Заветы Ильича, town,49.030109,140.272903,./maps_data/ Заветы Ильича.png
106386, Araku Valley, town,18.3229038,82.88021640000002,./maps_data/ Araku Valley.png
106387, Nava Raipur Atal Nagar, city,21.1610268,81.7864412,./maps_data/ Nava Raipur Atal Nagar.png
106388, Kashipur, town,23.4339229,86.66688959999998,./maps_data/ Kashipur.png
106389, Raghunathpur, town,23.5381361,86.6739117,./maps_data/ Raghunathpur.png
106390, Мишелёвка, town,52.865021,103.184097,./maps_data/ Мишелёвка.png
106391, Славянка, town,42.8606833,131.3924115,./maps_data/ Славянка.png
106392, 小江口乡, town,27.8814114,110.4478351,./maps_data/ 小江口乡.png
106393, Amethi, town,26.7560594,81.1576748,./maps_data/ Amethi.png
106395, Sragen, town,-7.4273970999999985,111.023678,./maps_data/ Sragen.png
106396, نمک آبرود, town,36.67624960000001,51.305898,./maps_data/ نمک آبرود.png
106397, Raniganj, city,23.6105991,87.11973499999998,./maps_data/ Raniganj.png
106398, Saltora, town,23.521788600000004,86.935786,./maps_data/ Saltora.png
106399, Kozhikode, city,11.2586082,75.7788735,./maps_data/ Kozhikode.png
106400, Shahgarh, town,24.3139578,79.11833299999998,./maps_data/ Shahgarh.png
106401, Зеленогорск, town,56.11356,94.589279,./maps_data/ Зеленогорск.png
106402, Mairwa, town,26.236654700000006,84.1505195,./maps_data/ Mairwa.png
106403, Gopalganj, town,26.4645422,84.4433697,./maps_data/ Gopalganj.png
106404, Ramnagar, town,27.1651657,84.3285453,./maps_data/ Ramnagar.png
106405, Зарубино, town,42.6510985,131.0620143,./maps_data/ Зарубино.png
106406, Georai, town,19.2625294,75.75049279999998,./maps_data/ Georai.png
106407, Manipal, town,13.3519723,74.7870308,./maps_data/ Manipal.png
106408, Восток, town,46.4481609,135.82986090000003,./maps_data/ Восток.png
106409, Sus Gaon, town,18.5541586,73.753904,./maps_data/ Sus Gaon.png
106410, Barharia, town,26.315604600000004,84.4560243,./maps_data/ Barharia.png
106411, Goreswar, town,26.5282906,91.7249869,./maps_data/ Goreswar.png
106412, Maharajganj, town,26.108443,84.5028865,./maps_data/ Maharajganj.png
106413, Ranbir Singh Pura, town,32.6069839,74.7338563,./maps_data/ Ranbir Singh Pura.png
106414, Преображение, town,42.9015192,133.8987977,./maps_data/ Преображение.png
106415, قصابه, town,38.3837047,47.5455522,./maps_data/ قصابه.png
106416, , town,38.4908126,47.5054326,./maps_data/ .png
106418, تازه کند قدیم, town,39.5805353,48.0109969,./maps_data/ تازه کند قدیم.png
106419, Asmoli, town,28.6949735,78.53336290000001,./maps_data/ Asmoli.png
106420, Chhota Udaipur, town,22.3048651,74.01261140000003,./maps_data/ Chhota Udaipur.png
106421, Petlad, town,22.4770467,72.8003365,./maps_data/ Petlad.png
106422, Сафакулево, town,54.988411,62.54039,./maps_data/ Сафакулево.png
106423, Koliwar, town,25.5734451,84.79114759999999,./maps_data/ Koliwar.png
106424, 崇义县, city,25.6865177,114.3030376,./maps_data/ 崇义县.png
106425, 三河尖镇, town,32.4712028,115.8096018,./maps_data/ 三河尖镇.png
106426, 段集镇, town,31.9158725,115.6660487,./maps_data/ 段集镇.png
106427, 泉河铺镇, town,32.19769,115.8587365,./maps_data/ 泉河铺镇.png
106428, 张广庙镇, town,32.1079043,115.8751645,./maps_data/ 张广庙镇.png
106429, 武庙集镇, town,31.8719963,115.7398191,./maps_data/ 武庙集镇.png
106430, 丰港乡, town,32.415925699999995,115.7691607,./maps_data/ 丰港乡.png
106431, 蒋集镇, town,32.3026279,115.7718359,./maps_data/ 蒋集镇.png
106432, 柳树店乡, town,32.135324600000004,115.73459009999998,./maps_data/ 柳树店乡.png
106433, 石佛店镇, town,32.0745352,115.7939504,./maps_data/ 石佛店镇.png
106434, 沙河铺镇, town,32.1766696,115.7167443,./maps_data/ 沙河铺镇.png
106435, زنگی آباد, town,30.410293900000006,56.9155312,./maps_data/ زنگی آباد.png
106436, Толстой-Юрт, town,43.4415625,45.7746216,./maps_data/ Толстой-Юрт.png
106437, Червлённая, town,43.497143,45.890404,./maps_data/ Червлённая.png
106438, مسيعيد, town,24.9953944,51.5493583,./maps_data/ مسيعيد.png
106439, الوكرة, town,25.1566623,51.60132120000001,./maps_data/ الوكرة.png
106440, 杨堤乡, town,24.9978337,110.44860020000002,./maps_data/ 杨堤乡.png
106441, Anandpur Sahib, town,31.2346773,76.4973104,./maps_data/ Anandpur Sahib.png
106442, Howly, town,26.4254768,90.9716533,./maps_data/ Howly.png
106443, Kheralu, town,23.8851474,72.6172316,./maps_data/ Kheralu.png
106444, Vadnagar, town,23.7848358,72.6346407,./maps_data/ Vadnagar.png
106445, Joy Haft, town,34.4272135,70.43195490000002,./maps_data/ Joy Haft.png
106446, خانوک, town,30.717400800000004,56.77589,./maps_data/ خانوک.png
106447, Dasuya, town,31.8142149,75.6577594,./maps_data/ Dasuya.png
106448, Nakodar, town,31.1264364,75.4761382,./maps_data/ Nakodar.png
106449, Биндэр, town,48.6163764,110.6062847,./maps_data/ Биндэр.png
106450, Батширээт, town,48.692764,110.189866,./maps_data/ Батширээт.png
106451, اختیارآباد, town,30.3276538,56.9247177,./maps_data/ اختیارآباد.png
106452, Sri HarGobindpur, town,31.6875406,75.47843759999998,./maps_data/ Sri HarGobindpur.png
106453, Медногорск, town,51.4049435,57.58031379999999,./maps_data/ Медногорск.png
106454, Pasir Pengaraian, town,0.8937341000000001,100.3087795,./maps_data/ Pasir Pengaraian.png
106455, Ujung Batu, town,0.7154651999999999,100.5234374,./maps_data/ Ujung Batu.png
106456, Baleshwar, town,21.5017098,86.9216712,./maps_data/ Baleshwar.png
106457, Цэнхэрмандал, town,47.7223422,109.0278338,./maps_data/ Цэнхэрмандал.png
106458, Ирбейское, town,55.644501,95.456528,./maps_data/ Ирбейское.png
106459, Южно-Курильск, town,44.0270756,145.86137219999995,./maps_data/ Южно-Курильск.png
106460, Amargarh, town,30.4634148,76.0115571,./maps_data/ Amargarh.png
106461, 擂鼓镇, town,31.7871522,104.4350117,./maps_data/ 擂鼓镇.png
106462, Слободской, town,58.7277816,50.1771234,./maps_data/ Слободской.png
106463, Кирово-Чепецк, city,58.5421963,50.03408889999999,./maps_data/ Кирово-Чепецк.png
106464, ཐིམ་ཕུ, city,27.4713546,89.63367290000002,./maps_data/ ཐིམ་ཕུ.png
106465, ปากน้ำ, town,14.9286932,100.0811035,./maps_data/ ปากน้ำ.png
106466, Բաղրամյան, town,40.196124,43.8554119,./maps_data/ Բաղրամյան.png
106467, Торгай, town,49.632599,63.491604,./maps_data/ Торгай.png
106468, Sualkuchi, town,26.1699793,91.5709202,./maps_data/ Sualkuchi.png
106469, Nad-e Ali, town,31.6434234,64.237812,./maps_data/ Nad-e Ali.png
106470, Кадамжай, town,40.1300143,71.726265,./maps_data/ Кадамжай.png
106471, Атамановка, town,51.918083,113.649384,./maps_data/ Атамановка.png
106472, Новокручининский, town,51.774662,113.792671,./maps_data/ Новокручининский.png
106473, Khem Karan, town,31.144424,74.559673,./maps_data/ Khem Karan.png
106474, Patti, town,31.280236100000003,74.8551871,./maps_data/ Patti.png
106475, Firozpur, city,30.9611784,74.6092483,./maps_data/ Firozpur.png
106476, فارمد, town,36.4443303,59.7131192,./maps_data/ فارمد.png
106477, Елизово, town,53.18649720000001,158.38367119999995,./maps_data/ Елизово.png
106478, 往流镇, town,32.412706199999995,115.6704623,./maps_data/ 往流镇.png
106479, 李店镇, town,32.3425687,115.6753067,./maps_data/ 李店镇.png
106480, 洪埠乡, town,32.2553177,115.6703985,./maps_data/ 洪埠乡.png
106481, Al Mirfa, town,24.096159600000004,53.487065,./maps_data/ Al Mirfa.png
106482, Toboali, town,-3.0107089,106.454928,./maps_data/ Toboali.png
106483, Айдаркен, town,39.9409909,71.3435653,./maps_data/ Айдаркен.png
106484, Гурванзагал сум, town,49.1476902,114.8759747,./maps_data/ Гурванзагал сум.png
106485, Nabha, town,30.3739948,76.1528674,./maps_data/ Nabha.png
106486, Дашбалбар, town,49.54665670000001,114.406498,./maps_data/ Дашбалбар.png
106487, Баян-Уул сум, town,49.1208848,112.6726952,./maps_data/ Баян-Уул сум.png
106488, Норовлин, town,48.6912288,111.9997741,./maps_data/ Норовлин.png
106489, Бэрх, town,47.7836684,111.1610388,./maps_data/ Бэрх.png
106490, Батноров, town,47.9487504,111.5004939,./maps_data/ Батноров.png
106491, Yogyakarta, city,-7.801194500000001,110.364917,./maps_data/ Yogyakarta.png
106492, Дэлүүн, town,47.8655848,90.6986534,./maps_data/ Дэлүүн.png
106493, Aminagada, town,16.057224599999998,75.94505629999998,./maps_data/ Aminagada.png
106494, Яруу, town,48.1136464,96.7640898,./maps_data/ Яруу.png
106495, หัวดง, town,16.3470516,100.3997079,./maps_data/ หัวดง.png
106496, Rajkot, city,22.3051991,70.80283349999998,./maps_data/ Rajkot.png
106497, Bawani Khera, town,28.9497708,76.03174820000002,./maps_data/ Bawani Khera.png
106498, Bhiwani, city,28.7931703,76.1391283,./maps_data/ Bhiwani.png
106499, Tosham, town,28.8701972,75.9153045,./maps_data/ Tosham.png
106500, นครราชสีมา, city,14.9747545,102.0929301,./maps_data/ นครราชสีมา.png
106501, Hansi, town,29.105320000000006,75.96341009999998,./maps_data/ Hansi.png
106502, Narwana, town,29.5957641,76.11856920000002,./maps_data/ Narwana.png
106503, Barwala, town,29.3661169,75.9070661,./maps_data/ Barwala.png
106504, Uklana, town,29.5124365,75.8782021,./maps_data/ Uklana.png
106505, Fatehabad, town,29.510431300000004,75.4535276,./maps_data/ Fatehabad.png
106506, Kalanwali, town,29.8330601,74.9760939,./maps_data/ Kalanwali.png
106507, Mandi Dabwali, town,29.9657112,74.702937,./maps_data/ Mandi Dabwali.png
106508, Sardulgarh, town,29.6934466,75.23753,./maps_data/ Sardulgarh.png
106509, Woha, town,-8.581709199999999,118.6947176,./maps_data/ Woha.png
106510, Bathinda, city,30.2081076,74.9485371,./maps_data/ Bathinda.png
106511, Ratia, town,29.685073600000006,75.5732425,./maps_data/ Ratia.png
106512, Kecamatan Lambu, town,-8.642878999999999,119.00321509999998,./maps_data/ Kecamatan Lambu.png
106513, Kecamatan Langgudu, town,-8.6850636,118.8173269,./maps_data/ Kecamatan Langgudu.png
106514, Rohtak, city,28.9010899,76.58019350000002,./maps_data/ Rohtak.png
106515, Pataudi, town,28.325914,76.77870229999998,./maps_data/ Pataudi.png
106516, Farrukhnagar, town,28.4479606,76.8229285,./maps_data/ Farrukhnagar.png
106517, Jhajjar, town,28.6066833,76.65807640000001,./maps_data/ Jhajjar.png
106518, Kecamatan Sanggar, town,-8.3855667,118.2924036,./maps_data/ Kecamatan Sanggar.png
106519, Rajgarh, town,28.6415386,75.3852992,./maps_data/ Rajgarh.png
106520, Jhunjhunu, city,28.1287995,75.39925809999998,./maps_data/ Jhunjhunu.png
106521, Churu, city,28.298335,74.96793079999998,./maps_data/ Churu.png
106522, Taranagar, town,28.6707787,75.0361419,./maps_data/ Taranagar.png
106523, Chilaw, city,7.5765074000000014,79.7956755,./maps_data/ Chilaw.png
106524, Arga Makmur, town,-3.4378580000000003,102.1952959,./maps_data/ Arga Makmur.png
106525, Tubei, town,-3.1611977,102.1835065,./maps_data/ Tubei.png
106526, Городовиковск, town,46.082851,41.934269,./maps_data/ Городовиковск.png
106527, Яшалта, town,46.3385265,42.2726097,./maps_data/ Яшалта.png
106528, ชะอำ, town,12.798642,99.967763,./maps_data/ ชะอำ.png
106529, Hiranagar, town,32.4544251,75.27011920000002,./maps_data/ Hiranagar.png
106530, Bishnah, town,32.6121578,74.8562556,./maps_data/ Bishnah.png
106531, Vijaypur, town,32.5664955,75.0172188,./maps_data/ Vijaypur.png
106532, Цимлянск, town,47.650585,42.098232,./maps_data/ Цимлянск.png
106533, Nganglam, town,26.8352345,91.2536379,./maps_data/ Nganglam.png
106534, Pathsala, town,26.5051095,91.1778073,./maps_data/ Pathsala.png
106535, Miao, town,27.4873015,96.2063386,./maps_data/ Miao.png
106536, Плесецк, town,62.709524,40.2843885,./maps_data/ Плесецк.png
106537, Kecamatan Wawo, town,-8.5210308,118.8444464,./maps_data/ Kecamatan Wawo.png
106538, เกษตรพัฒนา, town,13.65914,100.1659987,./maps_data/ เกษตรพัฒนา.png
106539, Verka, town,31.6641033,74.9350828,./maps_data/ Verka.png
106540, Солнечный, town,55.28454720000001,89.82328299999998,./maps_data/ Солнечный.png
106541, Bikaner, city,28.0159286,73.3171367,./maps_data/ Bikaner.png
106542, 古镇镇, town,22.619289,113.1825517,./maps_data/ 古镇镇.png
106543, 横栏镇, town,22.5827353,113.2252258,./maps_data/ 横栏镇.png
106544, 巴彦浩特镇, town,38.8329259,105.6663816,./maps_data/ 巴彦浩特镇.png
106545, Kota Bima, city,-8.453516800000001,118.7276222,./maps_data/ Kota Bima.png
106546, 汪棚镇, town,32.1083536,115.6137645,./maps_data/ 汪棚镇.png
106547, 赵岗乡, town,31.9635588,115.686061,./maps_data/ 赵岗乡.png
106548, 方集镇, town,31.90377460000001,115.6106727,./maps_data/ 方集镇.png
106549, 吉田町, town,34.7737836,138.26056090000003,./maps_data/ 吉田町.png
106550, 川根本町, town,35.163515000000004,138.104479,./maps_data/ 川根本町.png
106551, 祖师庙镇, town,31.8439405,115.8044344,./maps_data/ 祖师庙镇.png
106552, 王家坝镇, town,32.4237178,115.6183908,./maps_data/ 王家坝镇.png
106553, 三朝町, town,35.40843,133.86171299999998,./maps_data/ 三朝町.png
106554, Кадом, town,54.56553270000001,42.4655989,./maps_data/ Кадом.png
106555, কক্সবাজার, city,21.4417982,91.978457,./maps_data/ কক্সবাজার.png
106556, পঞ্চগড়, town,26.3318393,88.55567679999999,./maps_data/ পঞ্চগড়.png
106557, পার্বতীপুর, town,25.6575053,88.9163662,./maps_data/ পার্বতীপুর.png
106558, পীরগঞ্জ, town,25.852289000000006,88.36175240000001,./maps_data/ পীরগঞ্জ.png
106559, ঠাকুরগাঁও, town,26.0200532,88.4694397,./maps_data/ ঠাকুরগাঁও.png
106560, বাগেরহাট, town,22.6554187,89.79717459999998,./maps_data/ বাগেরহাট.png
106561, Yangiobod, town,41.1192264,70.0934799,./maps_data/ Yangiobod.png
106562, باغ ملک, town,31.5247494,49.8868966,./maps_data/ باغ ملک.png
106563, قلعه تل, town,31.6307184,49.8908244,./maps_data/ قلعه تل.png
106564, San Luis, town,15.0393531,120.7908452,./maps_data/ San Luis.png
106565, سۆران, city,36.6532422,44.5390147,./maps_data/ سۆران.png
106566, Ивдель, town,60.6973287,60.4172583,./maps_data/ Ивдель.png
106567, 常平, town,22.9781728,113.9873601,./maps_data/ 常平.png
106568, 厚街, town,22.9502747,113.6690507,./maps_data/ 厚街.png
106569, Белоярский, town,63.7156353,66.6667691,./maps_data/ Белоярский.png
106570, Kerobokan, town,-8.649417399999999,115.1762415,./maps_data/ Kerobokan.png
106571, Орск, city,51.2305015,58.4738015,./maps_data/ Орск.png
106572, 永建镇, town,25.427492800000003,100.2134375,./maps_data/ 永建镇.png
106573, بەردەڕەش, town,36.5026998,43.5889075,./maps_data/ بەردەڕەش.png
106574, Свеча, town,58.277,47.512543,./maps_data/ Свеча.png
106575, Ringas, town,27.36621,75.5676292,./maps_data/ Ringas.png
106576, Shri Madhopur, town,27.4652463,75.59740649999998,./maps_data/ Shri Madhopur.png
106577, 古河市, city,36.178025,139.7553638,./maps_data/ 古河市.png
106578, Neem Ka Thana, town,27.7360104,75.7854205,./maps_data/ Neem Ka Thana.png
106579, Khandela, town,27.605004,75.5015868,./maps_data/ Khandela.png
106580, Jiribam, town,24.8087217,93.1143992,./maps_data/ Jiribam.png
106581, Mancherial, town,18.876179500000006,79.4449696,./maps_data/ Mancherial.png
106582, Sringeri, town,13.426172400000002,75.25536899999999,./maps_data/ Sringeri.png
106583, Chenani, town,33.0364084,75.28389370000002,./maps_data/ Chenani.png
106584, Горняцкий, town,48.292439,40.959938,./maps_data/ Горняцкий.png
106585, Маркова, town,52.213161,104.205444,./maps_data/ Маркова.png
106586, Belaganj, town,24.9689174,84.97588409999999,./maps_data/ Belaganj.png
106587, 丙中洛镇, town,28.018125800000004,98.6214535,./maps_data/ 丙中洛镇.png
106588, Seppa, town,27.3594183,93.0406098,./maps_data/ Seppa.png
106589, Куминский, town,58.809101,65.971642,./maps_data/ Куминский.png
106590, Духовницкое, town,52.481724,48.21420300000001,./maps_data/ Духовницкое.png
106591, Екатериновка, town,52.0536048,44.3498585,./maps_data/ Екатериновка.png
106592, Серноводское, town,43.315834,45.163658,./maps_data/ Серноводское.png
106593, Гикало, town,43.22681400000001,45.736652,./maps_data/ Гикало.png
106594, Старые Атаги, town,43.118649,45.739742,./maps_data/ Старые Атаги.png
106595, Новые Атаги, town,43.128609,45.770214,./maps_data/ Новые Атаги.png
106596, Чечен-Аул, town,43.196724,45.786777,./maps_data/ Чечен-Аул.png
106597, Nidagunda, town,17.292699399999997,77.37585729999998,./maps_data/ Nidagunda.png
106598, 常総市, city,36.0235685,139.99387140000002,./maps_data/ 常総市.png
106599, চাঁপাইনবাবগঞ্জ, town,24.5954428,88.2704609,./maps_data/ চাঁপাইনবাবগঞ্জ.png
106600, Waghodia, town,22.3043328,73.40167679999998,./maps_data/ Waghodia.png
106601, سلطانپور, town,34.4183098,70.32359459999999,./maps_data/ سلطانپور.png
106602, কাউনিয়া, town,25.7733094,89.4190381,./maps_data/ কাউনিয়া.png
106603, Тэшиг, town,49.9484498,102.6703464,./maps_data/ Тэшиг.png
106604, Kharar, town,30.7456311,76.6462003,./maps_data/ Kharar.png
106605, Нягань, town,62.14456460000001,65.4349289,./maps_data/ Нягань.png
106606, আখাউড়া, town,23.8681221,91.2088835,./maps_data/ আখাউড়া.png
106607, 東引鄉, town,26.3668216,120.4904165,./maps_data/ 東引鄉.png
106608, 烏坵鄉, town,24.9916019,119.4531563,./maps_data/ 烏坵鄉.png
106609, Pangkalpinang, city,-2.1206732999999995,106.1134604,./maps_data/ Pangkalpinang.png
106610, Panchkula, town,30.6975401,76.8551066,./maps_data/ Panchkula.png
106611, Курчалой, town,43.20005,46.090786,./maps_data/ Курчалой.png
106612, Наурская, town,43.650589,45.311901,./maps_data/ Наурская.png
106613, Ножай-Юрт, town,43.0945581,46.37986770000001,./maps_data/ Ножай-Юрт.png
106614, Шелковская, town,43.506142,46.333469,./maps_data/ Шелковская.png
106615, Waikabubak, town,-9.6355595,119.4100521,./maps_data/ Waikabubak.png
106616, Waingapu, town,-9.652179,120.2636908,./maps_data/ Waingapu.png
106617, Tambolaka, town,-9.4241666,119.2419987,./maps_data/ Tambolaka.png
106618, Тэс, town,50.4777269,93.5941858,./maps_data/ Тэс.png
106619, Самашки, town,43.289406,45.297359,./maps_data/ Самашки.png
106620, Плиево, town,43.283656,44.837652,./maps_data/ Плиево.png
106621, Троицкая, town,43.3064687,44.98291010000001,./maps_data/ Троицкая.png
106622, Яндаре, town,43.2747324,44.9115114,./maps_data/ Яндаре.png
106623, Экажево, town,43.2080684,44.818619,./maps_data/ Экажево.png
106624, Ассиновская, town,43.238571,45.18013,./maps_data/ Ассиновская.png
106625, Нестеровская, town,43.2390843,45.0473614,./maps_data/ Нестеровская.png
106627, Lăng Cô, town,16.2410305,108.0782368,./maps_data/ Lăng Cô.png
106628, Baguio, city,16.412007,120.5933937,./maps_data/ Baguio.png
106629, Dera Bassi, town,30.5882408,76.8438542,./maps_data/ Dera Bassi.png
106630, 鲁史镇, town,24.845051,99.9992364,./maps_data/ 鲁史镇.png
106631, 新华彝族苗族乡, town,24.8711953,100.0744908,./maps_data/ 新华彝族苗族乡.png
106632, Dhemaji, town,27.476379700000006,94.5629622,./maps_data/ Dhemaji.png
106633, Chapakhowa, town,27.9232314,95.764631,./maps_data/ Chapakhowa.png
106634, Birpur, town,26.5151843,87.0084605,./maps_data/ Birpur.png
106635, Madhepura, town,25.9174142,86.7915907,./maps_data/ Madhepura.png
106636, کەلەکچی, town,36.583726,43.525433,./maps_data/ کەلەکچی.png
106637, چڕە, town,36.6403095,43.5271085,./maps_data/ چڕە.png
106638, سێمێل, town,36.858667,42.8462949,./maps_data/ سێمێل.png
106639, Periyakulam, town,10.1198663,77.5467069,./maps_data/ Periyakulam.png
106640, 渋谷区, city,35.6645956,139.6987107,./maps_data/ 渋谷区.png
106641, Canlaon, city,10.3866101,123.2244938,./maps_data/ Canlaon.png
106642, 立川市, city,35.724463,139.404766,./maps_data/ 立川市.png
106643, 青梅市, city,35.803601,139.238128,./maps_data/ 青梅市.png
106644, บางมูลนาก, town,16.0311303,100.3800942,./maps_data/ บางมูลนาก.png
106645, Юрты, town,56.048733,97.635185,./maps_data/ Юрты.png
106646, ระหาน, town,16.1556376,99.9412053,./maps_data/ ระหาน.png
106647, Digod, town,25.221388,76.0790263,./maps_data/ Digod.png
106648, Banepa, town,27.6322507,85.5215627,./maps_data/ Banepa.png
106649, Железнодорожный, town,57.908489,102.775116,./maps_data/ Железнодорожный.png
106650, 勐堆乡, town,23.9190196,98.8907142,./maps_data/ 勐堆乡.png
106651, Sawai Madhopur, city,26.0188919,76.3522441,./maps_data/ Sawai Madhopur.png
106652, Dabra, town,25.8830577,78.3322859,./maps_data/ Dabra.png
106653, Dauis, town,9.624934,123.865223,./maps_data/ Dauis.png
106654, Thanagazi, town,27.3999312,76.3164873,./maps_data/ Thanagazi.png
106655, Xovos, town,40.2144088,68.8387121,./maps_data/ Xovos.png
106656, 城子镇, town,24.3584326,97.9549456,./maps_data/ 城子镇.png
106657, 陇把镇, town,24.2898148,97.8393128,./maps_data/ 陇把镇.png
106658, 景罕镇, town,24.2514936,97.8768049,./maps_data/ 景罕镇.png
106659, ວັງວຽງ, town,18.919421300000003,102.4477333,./maps_data/ ວັງວຽງ.png
106660, Ленинское, town,58.3161647,47.088632200000006,./maps_data/ Ленинское.png
106661, بشرویه, town,33.8662098,57.4253814,./maps_data/ بشرویه.png
106662, Soonda, town,29.7473206,73.29364890000002,./maps_data/ Soonda.png
106663, Мартук, town,50.7443222,56.4995791,./maps_data/ Мартук.png
106664, Анива, town,46.7147768,142.527515,./maps_data/ Анива.png
106665, Петропавловск, city,54.86681039999999,69.13349840000001,./maps_data/ Петропавловск.png
106666, Улан-Удэ, city,51.83578410000001,107.5839105,./maps_data/ Улан-Удэ.png
106667, Cadiz, city,10.956652,123.3057034,./maps_data/ Cadiz.png
106668, Anupgarh, town,29.1906459,73.2113999,./maps_data/ Anupgarh.png
106669, Миньяр, town,55.0709139,57.54850210000001,./maps_data/ Миньяр.png
106670, Большой Камень, town,43.1121194,132.3509104,./maps_data/ Большой Камень.png
106671, الغيل, town,25.4003246,56.0593739,./maps_data/ الغيل.png
106672, Sitalkuchi, town,26.1710392,89.1900739,./maps_data/ Sitalkuchi.png
106673, পাটগ্রাম, town,26.345786100000005,89.0208507,./maps_data/ পাটগ্রাম.png
106674, Шымкент, city,42.31469620000001,69.5883282,./maps_data/ Шымкент.png
106675, Булаево, town,54.896652,70.447189,./maps_data/ Булаево.png
106676, Шенкурск, town,62.1059279,42.9076435,./maps_data/ Шенкурск.png
106677, 大山铺镇, town,29.3956691,104.8234186,./maps_data/ 大山铺镇.png
106678, Hale Hagari Bommanahalli, town,15.0448586,76.198169,./maps_data/ Hale Hagari Bommanahalli.png
106679, Concepcion, town,12.9160073,121.71765659999998,./maps_data/ Concepcion.png
106680, Buxwaha, town,24.2495305,79.285843,./maps_data/ Buxwaha.png
106681, Nelamangala, town,13.0953024,77.39635859999999,./maps_data/ Nelamangala.png
106682, Mahrauni, town,24.5849859,78.7273607,./maps_data/ Mahrauni.png
106683, Shahr-e-naw Bamyan, town,34.805049100000005,67.82889859999999,./maps_data/ Shahr-e-naw Bamyan.png
106684, হিলি, town,25.2813175,89.0033233,./maps_data/ হিলি.png
106685, জয়পুরহাট, town,25.103447600000006,89.0209157,./maps_data/ জয়পুরহাট.png
106686, ঈশ্বরদী, town,24.1285847,89.0653214,./maps_data/ ঈশ্বরদী.png
106687, ফরিদপুর, city,23.6040182,89.8415542,./maps_data/ ফরিদপুর.png
106688, দর্শনা, town,23.5310689,88.8002262,./maps_data/ দর্শনা.png
106689, কোটচাঁদপুর, town,23.4118585,89.01148409999998,./maps_data/ কোটচাঁদপুর.png
106690, ফেঞ্চুগঞ্জ, town,24.6942465,91.9392229,./maps_data/ ফেঞ্চুগঞ্জ.png
106691, জামালপুর, town,24.9277076,89.94782049999998,./maps_data/ জামালপুর.png
106692, মোহনগঞ্জ, town,24.8755919,90.9771054,./maps_data/ মোহনগঞ্জ.png
106693, শেরপুর, town,25.022768600000006,90.0060793,./maps_data/ শেরপুর.png
106694, ছাতক বাজার, town,25.033745,91.6618288,./maps_data/ ছাতক বাজার.png
106695, Ленинкент, town,42.9708612,47.3607531,./maps_data/ Ленинкент.png
106696, গফরগাঁও, city,24.4550778,90.5498526,./maps_data/ গফরগাঁও.png
106697, ضدنا, town,25.522473100000006,56.35790179999999,./maps_data/ ضدنا.png
106698, الشحانية‎, town,25.3717421,51.22710900000001,./maps_data/ الشحانية‎.png
106699, Трёхгорный-1, town,54.79037389999999,58.6340969,./maps_data/ Трёхгорный-1.png
106700, الرويس, town,26.1295039,51.20465220000001,./maps_data/ الرويس.png
106701, ཨ་གླིང་ 川主寺镇, town,32.7844132,103.6251584,./maps_data/ ཨ་གླིང་ 川主寺镇.png
106702, חדרה, city,32.43699,34.9198258,./maps_data/ חדרה.png
106703, Sunam, town,30.134004,75.8062777,./maps_data/ Sunam.png
106704, Jorethang, town,27.131523,88.28253470000001,./maps_data/ Jorethang.png
106705, Халхгол сум, town,47.6278063,118.6276108,./maps_data/ Халхгол сум.png
106706, চিলমারী, town,25.5850605,89.6622435,./maps_data/ চিলমারী.png
106707, কুড়িগ্রাম, town,25.8121378,89.64412890000001,./maps_data/ কুড়িগ্রাম.png
106708, নীলফামারী, town,25.9339275,88.8534588,./maps_data/ নীলফামারী.png
106709, Paxtaobod, town,40.9275291,72.498114,./maps_data/ Paxtaobod.png
106710, 玉野市, city,34.491942,133.9460028,./maps_data/ 玉野市.png
106711, 海口街道, town,24.7885722,102.6062332,./maps_data/ 海口街道.png
106712, نجف آباد, city,32.6334121,51.3656199,./maps_data/ نجف آباد.png
106713, Bay, town,14.1809859,121.284764,./maps_data/ Bay.png
106714, العوير, town,25.1694203,55.5416335,./maps_data/ العوير.png
106715, لهباب, town,25.0415422,55.59237660000001,./maps_data/ لهباب.png
106716, شهرضا, town,32.0116032,51.8651719,./maps_data/ شهرضا.png
106717, یزد, city,31.8882678,54.364239100000006,./maps_data/ یزد.png
106718, Raghogarh, town,24.444936,77.19605279999998,./maps_data/ Raghogarh.png
106719, 上島町, town,34.257499100000004,133.20445729999997,./maps_data/ 上島町.png
106720, Fakiragram, town,26.3632189,90.1802714,./maps_data/ Fakiragram.png
106721, Manuguru, town,17.9384182,80.817981,./maps_data/ Manuguru.png
106723, 霞寨镇, town,24.350278,117.166111,./maps_data/ 霞寨镇.png
106725, Dhangadhi, city,28.703304,80.567017,./maps_data/ Dhangadhi.png
106726, Alwar, city,27.5646036,76.61318409999998,./maps_data/ Alwar.png
106727, Kaithady, town,9.6877397,80.10362740000002,./maps_data/ Kaithady.png
106728, Joda, town,22.0246322,85.4236946,./maps_data/ Joda.png
106729, Esperanza, town,6.7218005000000005,124.5244236,./maps_data/ Esperanza.png
106730, Lambayong, town,6.7983966,124.6326489,./maps_data/ Lambayong.png
106731, 钟祥镇, town,29.8267477,104.1366149,./maps_data/ 钟祥镇.png
106732, 井研县, city,29.653107,104.0674826,./maps_data/ 井研县.png
106733, Buluan, town,6.7175944,124.7916074,./maps_data/ Buluan.png
106734, Senator Ninoy Aquino, town,6.4594122,124.3221594,./maps_data/ Senator Ninoy Aquino.png
106735, Howraghat, town,26.1128124,93.0357759,./maps_data/ Howraghat.png
106736, Чулаккурган, town,43.766701,69.17688000000001,./maps_data/ Чулаккурган.png
106737, Japla, town,24.5306951,83.99982990000002,./maps_data/ Japla.png
106738, Rohtas, town,24.6342713,83.9639504,./maps_data/ Rohtas.png
106739, Vithura, town,8.67,77.085,./maps_data/ Vithura.png
106740, شهر صدرا, city,29.8153909,52.47486329999999,./maps_data/ شهر صدرا.png
106741, جپرهار, town,34.277373,70.361795,./maps_data/ جپرهار.png
106742, الخاتم, town,24.1900101,54.99367629999999,./maps_data/ الخاتم.png
106743, الخزنة, town,24.169088100000003,55.134002,./maps_data/ الخزنة.png
106744, سەرسنگ, town,37.0424849,43.3417765,./maps_data/ سەرسنگ.png
106745, الزرقاء‎, city,32.0668425,36.0885771,./maps_data/ الزرقاء‎.png
106746, Shivpuri, city,25.4235256,77.6551422,./maps_data/ Shivpuri.png
106747, Karera, town,25.4555666,78.1345266,./maps_data/ Karera.png
106748, Bhawanigarh, town,30.2623648,76.041332,./maps_data/ Bhawanigarh.png
106749, 武蔵村山市, city,35.756509,139.385637,./maps_data/ 武蔵村山市.png
106750, あきる野市, city,35.73104199999999,139.217028,./maps_data/ あきる野市.png
106751, 奥多摩町, town,35.8096602,139.09617230000003,./maps_data/ 奥多摩町.png
106752, 日の出町, town,35.758719,139.223819,./maps_data/ 日の出町.png
106753, 福生市, city,35.737188,139.33468200000002,./maps_data/ 福生市.png
106754, 羽村市, city,35.764833,139.307862,./maps_data/ 羽村市.png
106755, 結城市, city,36.3052945,139.8771403,./maps_data/ 結城市.png
106756, Dustlik, town,40.5288085,68.03289129999999,./maps_data/ Dustlik.png
106757, Шаульдер, town,42.778601,68.372741,./maps_data/ Шаульдер.png
106758, Горняк, town,51.0004641,81.4638583,./maps_data/ Горняк.png
106759, 大佘太镇, town,41.0196728,109.1412643,./maps_data/ 大佘太镇.png
106760, Bustan, town,41.8393774,60.9124514,./maps_data/ Bustan.png
106761, Taqıyatas, town,42.3346554,59.5791967,./maps_data/ Taqıyatas.png
106762, Khowai, town,24.081208,91.5989065,./maps_data/ Khowai.png
106763, 瑞穂町, town,35.784056,139.34573400000002,./maps_data/ 瑞穂町.png
106764, Cheruthoni, town,9.8581974,76.9618039,./maps_data/ Cheruthoni.png
106765, Dhanera, town,24.5078597,72.0234504,./maps_data/ Dhanera.png
106766, ડાયપર, town,23.634803100000006,68.9011899,./maps_data/ ડાયપર.png
106767, Инсар, town,53.867741,44.371407,./maps_data/ Инсар.png
106768, નાલલીયાં, town,23.2605569,68.8270602,./maps_data/ નાલલીયાં.png
106769, Грозный, city,43.31970310000001,45.6934308,./maps_data/ Грозный.png
106770, Hamirpur, town,31.6848695,76.5254488,./maps_data/ Hamirpur.png
106771, Nagrota Bagwan, town,32.1115908,76.37874240000002,./maps_data/ Nagrota Bagwan.png
106772, Baddi, town,30.9339975,76.8063071,./maps_data/ Baddi.png
106773, Kunihar, town,31.0788673,76.9607208,./maps_data/ Kunihar.png
106774, Tarapur, town,22.4882996,72.6576842,./maps_data/ Tarapur.png
106775, Vanasthali, town,26.4063103,75.8600789,./maps_data/ Vanasthali.png
106776, Jhalrapatan, town,24.5419929,76.17350640000002,./maps_data/ Jhalrapatan.png
106777, Bagra, town,25.1974472,72.593307,./maps_data/ Bagra.png
106778, مزرعه کتول, town,36.9548473,54.858326,./maps_data/ مزرعه کتول.png
106779, 安定區, town,23.1222381,120.23726200000002,./maps_data/ 安定區.png
106780, Vĩnh Long, city,10.2544281,105.9669665,./maps_data/ Vĩnh Long.png
106781, Katukurunda, town,6.5613291,79.9687314,./maps_data/ Katukurunda.png
106782, Okha, town,22.4708783,69.0751355,./maps_data/ Okha.png
106783, Ambanpola, town,7.9207391,80.23932579999997,./maps_data/ Ambanpola.png
106784, 贵台镇, town,22.1771449,108.3223409,./maps_data/ 贵台镇.png
106785, , town,37.4627489,120.5695229,./maps_data/ .png
106786, Nikaweratiya, town,7.750383,80.11572290000002,./maps_data/ Nikaweratiya.png
106787, Ibbagamuwa, town,7.5479128,80.4496417,./maps_data/ Ibbagamuwa.png
106788, 拉让乡, town,29.7704954,84.0300958,./maps_data/ 拉让乡.png
106789, Bắc Kạn, city,22.1494915,105.837248,./maps_data/ Bắc Kạn.png
106790, ગાંધીધામ, town,23.0718743,70.131715,./maps_data/ ગાંધીધામ.png
106791, مهمند دره, town,34.255340999999994,70.86573,./maps_data/ مهمند دره.png
106792, شیرزاد, town,34.2503581,70.0080665,./maps_data/ شیرزاد.png
106793, หนองสระ, town,15.450219400000002,99.8125291,./maps_data/ หนองสระ.png
106794, เสาธงหิน, town,13.8759677,100.4036606,./maps_data/ เสาธงหิน.png
106795, บางรักพัฒนา, town,13.903205300000002,100.3988163,./maps_data/ บางรักพัฒนา.png
106796, မူႇ​​ၸေႊ, city,23.9978074,97.9012716,./maps_data/ မူႇ​​ၸေႊ.png
106797, Пыщуг, town,58.88675010000001,45.7177025,./maps_data/ Пыщуг.png
106798, Bog'don, town,40.4184069,67.1813423,./maps_data/ Bog'don.png
106799, Sarkhej, town,22.983483,72.5007203,./maps_data/ Sarkhej.png
106800, 河西镇, town,24.1450276,102.6480449,./maps_data/ 河西镇.png
106801, 兴蒙蒙古族乡, town,24.1509709,102.6639529,./maps_data/ 兴蒙蒙古族乡.png
106802, 旺苍县, city,32.2302092,106.2855422,./maps_data/ 旺苍县.png
106803, 虎跳峡镇, town,27.1865784,100.0505038,./maps_data/ 虎跳峡镇.png
106804, Madrid, town,9.2622588,125.9655,./maps_data/ Madrid.png
106805, 明城镇, town,43.18888610000001,126.0099155,./maps_data/ 明城镇.png
106806, 取柴河镇, town,43.345414700000006,126.1611838,./maps_data/ 取柴河镇.png
106807, 烟筒山镇, town,43.28782879999999,126.0169579,./maps_data/ 烟筒山镇.png
106808, Batu Niah, town,3.803022,113.75537649999998,./maps_data/ Batu Niah.png
106809, বান্দরবান, town,22.1963002,92.2198872,./maps_data/ বান্দরবান.png
106810, 和歌山市, city,34.234617,135.17821809999998,./maps_data/ 和歌山市.png
106811, 克一河镇, town,50.65202410000001,122.4922732,./maps_data/ 克一河镇.png
106812, 图里河镇, town,50.4828776,121.669481,./maps_data/ 图里河镇.png
106813, 伊图里河, town,50.6341223,121.5473152,./maps_data/ 伊图里河.png
106814, 克什克腾旗, city,43.2527093,117.5384328,./maps_data/ 克什克腾旗.png
106815, 直方市, city,33.743936,130.7297462,./maps_data/ 直方市.png
106816, 嘉麻市, city,33.563210299999994,130.7118029,./maps_data/ 嘉麻市.png
106817, 飯塚市, city,33.646594,130.6911579,./maps_data/ 飯塚市.png
106818, 筑前町, town,33.4571433,130.5953934,./maps_data/ 筑前町.png
106819, 兴隆县, city,40.4167864,117.4890085,./maps_data/ 兴隆县.png
106820, 鹰手营子镇, town,40.5459734,117.6569029,./maps_data/ 鹰手营子镇.png
106821, 朝倉市, city,33.4234248,130.6657037,./maps_data/ 朝倉市.png
106822, 巴山镇, town,32.2574471,108.1114139,./maps_data/ 巴山镇.png
106823, 高滩镇, town,32.4134719,108.3253305,./maps_data/ 高滩镇.png
106824, 汉阴县, city,32.8856282,108.5031351,./maps_data/ 汉阴县.png
106825, 涧池镇, town,32.845485700000005,108.5923066,./maps_data/ 涧池镇.png
106826, 麻柳镇, town,32.2941146,108.2062343,./maps_data/ 麻柳镇.png
106827, 毛坝镇, town,32.33878060000001,108.24897040000002,./maps_data/ 毛坝镇.png
106828, 西乡县, city,32.9924543,107.7589578,./maps_data/ 西乡县.png
106829, 紫阳县, city,32.5242445,108.532698,./maps_data/ 紫阳县.png
106830, 大滩镇, town,32.775347100000005,105.9071124,./maps_data/ 大滩镇.png
106831, 马角镇, town,32.0877423,105.076216,./maps_data/ 马角镇.png
106832, 昭化镇, town,32.3364067,105.7126248,./maps_data/ 昭化镇.png
106833, Senduro, town,-8.098636599999999,113.0909895,./maps_data/ Senduro.png
106834, 丙谷镇, town,26.8165802,102.0691397,./maps_data/ 丙谷镇.png
106835, 德州街道, town,27.406997,102.1811035,./maps_data/ 德州街道.png
106837, 攀莲镇, town,26.897955100000004,102.1114209,./maps_data/ 攀莲镇.png
106838, 桐子林镇, town,26.6825411,101.8519329,./maps_data/ 桐子林镇.png
106840, 垭口镇, town,26.796563300000006,102.0007271,./maps_data/ 垭口镇.png
106841, 永郎镇, town,27.1560694,102.2458465,./maps_data/ 永郎镇.png
106842, Bondowoso, town,-7.9134402,113.8222709,./maps_data/ Bondowoso.png
106843, 渔门镇, town,26.8933637,101.5078536,./maps_data/ 渔门镇.png
106845, চাঁদপুর, city,23.2241763,90.6531005,./maps_data/ চাঁদপুর.png
106846, 大刀洗町, town,33.3723272,130.6226217,./maps_data/ 大刀洗町.png
106847, 小郡市, city,33.3963946,130.5554371,./maps_data/ 小郡市.png
106848, 久治县, city,33.4313087,101.4864493,./maps_data/ 久治县.png
106849, Pasuruan, city,-7.6419894,112.906694,./maps_data/ Pasuruan.png
106850, Lumajang, town,-8.135205000000001,113.2244162,./maps_data/ Lumajang.png
106851, Lawang, town,-7.8312224000000015,112.695289,./maps_data/ Lawang.png
106852, นครปฐม, town,13.835085199999998,100.0512324,./maps_data/ นครปฐม.png
106853, Banyuwangi, town,-8.2094973,114.3737201,./maps_data/ Banyuwangi.png
106854, Ngawi, town,-7.4039880999999985,111.4452353,./maps_data/ Ngawi.png
106856, 凤城镇, town,24.5504609,107.037304,./maps_data/ 凤城镇.png
106857, 泗城镇, town,24.3491847,106.5622365,./maps_data/ 泗城镇.png
106858, قلقيلية, town,32.1881333,34.9679208,./maps_data/ قلقيلية.png
106859, Ивантеевка, town,52.269524,49.107063,./maps_data/ Ивантеевка.png
106860, Alang, town,21.3968581,72.1774463,./maps_data/ Alang.png
106861, Thangadh, town,22.5743355,71.2000239,./maps_data/ Thangadh.png
106863, Мөст, town,46.6946383,92.7959552,./maps_data/ Мөст.png
106864, 巴马镇, town,24.1439837,107.2489162,./maps_data/ 巴马镇.png
106865, พนมทวน, town,14.129361,99.6998199,./maps_data/ พนมทวน.png
106866, 江西镇, town,22.7782596,108.0977925,./maps_data/ 江西镇.png
106867, 大同乡, town,24.3887032,107.5733452,./maps_data/ 大同乡.png
106868, 七百弄乡, town,24.126265300000004,107.6884087,./maps_data/ 七百弄乡.png
106869, 都阳镇, town,23.979254,107.6532812,./maps_data/ 都阳镇.png
106870, 上石桥镇, town,31.974907,115.4398524,./maps_data/ 上石桥镇.png
106871, 徐集乡, town,32.3930917,115.8266436,./maps_data/ 徐集乡.png
106872, 杨集乡, town,32.2619942,115.5580304,./maps_data/ 杨集乡.png
106873, 胡族铺镇, town,32.1852587,115.4699594,./maps_data/ 胡族铺镇.png
106874, 观堂乡, town,32.3313475,115.6217952,./maps_data/ 观堂乡.png
106875, 陈集镇, town,32.2837527,115.8754701,./maps_data/ 陈集镇.png
106876, 马堽集乡, town,32.0861519,115.4168217,./maps_data/ 马堽集乡.png
106877, 白马镇, town,27.5748815,111.6980419,./maps_data/ 白马镇.png
106878, 酿溪镇, town,27.314798,111.4542918,./maps_data/ 酿溪镇.png
106879, མོང་སྒར, town,27.2763005,91.237536,./maps_data/ མོང་སྒར.png
106880, Шаҳртуз, town,37.2653187,68.1369371,./maps_data/ Шаҳртуз.png
106881, 零陵区, city,26.2254797,111.6244711,./maps_data/ 零陵区.png
106882, 白牙市镇, town,26.4022897,111.3099235,./maps_data/ 白牙市镇.png
106883, 兴安镇, town,25.6030854,110.6664173,./maps_data/ 兴安镇.png
106884, 鹿寨镇, town,24.4871148,109.7528831,./maps_data/ 鹿寨镇.png
106885, Кашхатау, town,43.31919050000001,43.6091174,./maps_data/ Кашхатау.png
106886, Провидения, town,64.4238198,-173.2275013,./maps_data/ Провидения.png
106887, 新昌镇, town,28.400797600000004,114.8113741,./maps_data/ 新昌镇.png
106888, 澄江市, city,24.6781617,102.9026707,./maps_data/ 澄江市.png
106889, 松树镇, town,42.0499895,127.1074548,./maps_data/ 松树镇.png
106890, 湾沟镇, town,42.0623289,126.9127283,./maps_data/ 湾沟镇.png
106891, 砟子镇, town,41.99896939999999,126.5523509,./maps_data/ 砟子镇.png
106892, 新宁镇, town,22.6339539,107.90903020000002,./maps_data/ 新宁镇.png
106893, 濑湍镇, town,22.4469393,107.4984612,./maps_data/ 濑湍镇.png
106894, 渠旧镇, town,22.5172345,107.5728072,./maps_data/ 渠旧镇.png
106895, 亭亮镇, town,22.2185074,107.1849212,./maps_data/ 亭亮镇.png
106896, 白鹤镇, town,34.861050299999995,112.5545774,./maps_data/ 白鹤镇.png
106897, 关林街道, town,34.61270570000001,112.48080459999998,./maps_data/ 关林街道.png
106898, 嘉峰镇, town,35.5886959,112.52258159999998,./maps_data/ 嘉峰镇.png
106899, 鲁山县, city,33.74349,112.9083413,./maps_data/ 鲁山县.png
106900, 云阳镇, town,33.4456,112.714,./maps_data/ 云阳镇.png
106901, 汝阳县, city,34.149638200000005,112.4632777,./maps_data/ 汝阳县.png
106902, 轵城, town,35.0410065,112.591708,./maps_data/ 轵城.png
106903, Сомониён, town,38.4419092,68.7738867,./maps_data/ Сомониён.png
106904, 榆社县, city,37.06702620000001,112.9686372,./maps_data/ 榆社县.png
106905, Баяннуур, town,47.83019,104.4400631,./maps_data/ Баяннуур.png
106906, Бугат, town,49.067907,103.6768142,./maps_data/ Бугат.png
106907, 城关镇, town,33.7864823,111.61151809999998,./maps_data/ 城关镇.png
106908, 伊川县, city,34.4253186,112.4251064,./maps_data/ 伊川县.png
106909, Икряное, town,46.0979213,47.7362688,./maps_data/ Икряное.png
106910, Камызяк, town,46.120527,48.0815617,./maps_data/ Камызяк.png
106911, 东辛庄满族镇, town,40.3622949,120.4380054,./maps_data/ 东辛庄满族镇.png
106912, 沟帮子镇, town,41.3626118,121.7660449,./maps_data/ 沟帮子镇.png
106913, 滦州市, city,39.7396943,118.6974754,./maps_data/ 滦州市.png
106914, 石门镇, town,39.7298401,118.84608459999998,./maps_data/ 石门镇.png
106915, 石山镇, town,41.263483,121.5067289,./maps_data/ 石山镇.png
106916, 双羊镇, town,41.1102973,121.2731635,./maps_data/ 双羊镇.png
106917, 绥中县, city,40.329263,120.3331747,./maps_data/ 绥中县.png
106918, 羊圈子镇, town,41.2771941,121.6276217,./maps_data/ 羊圈子镇.png
106920, เขา พนม, town,8.2623667,99.0499308,./maps_data/ เขา พนม.png
106921, 涞水县, city,39.3956102,115.7080407,./maps_data/ 涞水县.png
106922, 易州镇, town,39.34487410000001,115.4932388,./maps_data/ 易州镇.png
106923, Ярославский, town,44.1878741,132.2273714,./maps_data/ Ярославский.png
106924, Elbeyli, town,36.6749549,37.4669854,./maps_data/ Elbeyli.png
106925, Сибирцево, town,44.2030676,132.4430113,./maps_data/ Сибирцево.png
106926, 上毛町, town,33.5783859,131.16465060000002,./maps_data/ 上毛町.png
106927, 吉富町, town,33.612613,131.1748732,./maps_data/ 吉富町.png
106928, Nurbulok, town,39.7463779,66.40644590000001,./maps_data/ Nurbulok.png
106929, 築上町, town,33.65606270000001,131.0563305,./maps_data/ 築上町.png
106930, 大深村, town,25.2550037,117.5986154,./maps_data/ 大深村.png
106931, 华丰镇, town,25.0039455,117.5335548,./maps_data/ 华丰镇.png
106933, 资溪县, city,27.7093568,117.0557929,./maps_data/ 资溪县.png
106934, กวนขนุน, town,7.7357827000000015,100.0055092,./maps_data/ กวนขนุน.png
106935, みやこ町, town,33.699169399999995,130.9207209,./maps_data/ みやこ町.png
106936, 行橋市, city,33.7292049,130.9831626,./maps_data/ 行橋市.png
106937, 杜泽镇, town,29.1252983,118.950553,./maps_data/ 杜泽镇.png
106938, 双河街道, town,29.3195108,105.5690004,./maps_data/ 双河街道.png
106939, 荣昌区, city,29.4185659,105.6085344,./maps_data/ 荣昌区.png
106941, Qanliko'l, town,42.8361463,59.0064653,./maps_data/ Qanliko'l.png
106942, Qilichboy, town,41.9768754,60.0389084,./maps_data/ Qilichboy.png
106943, Qoraul, town,41.560088,60.5844419,./maps_data/ Qoraul.png
106944, ทุ่งใหญ่, town,8.3014885,99.3672189,./maps_data/ ทุ่งใหญ่.png
106945, ลานสกา, town,8.3628274,99.7966234,./maps_data/ ลานสกา.png
106946, 渡市镇, town,31.0635414,107.274777,./maps_data/ 渡市镇.png
106947, 毛坝镇, town,31.6166301,107.7444251,./maps_data/ 毛坝镇.png
106948, 南坝镇, town,31.364639,108.0042292,./maps_data/ 南坝镇.png
106949, 渠江街道, town,30.8409561,106.9664085,./maps_data/ 渠江街道.png
106950, 三汇镇, town,31.034448200000003,107.1500219,./maps_data/ 三汇镇.png
106951, 土溪镇, town,31.0124632,107.0552764,./maps_data/ 土溪镇.png
106952, 苅田町, town,33.7757075,130.9805568,./maps_data/ 苅田町.png
106953, 白沙镇, town,29.0619989,106.120255,./maps_data/ 白沙镇.png
106954, 永川区, city,29.3585337,105.9242658,./maps_data/ 永川区.png
106955, 油溪镇, town,29.205600300000004,106.141833,./maps_data/ 油溪镇.png
106956, Gala Osiyo, town,39.859129,64.4419101,./maps_data/ Gala Osiyo.png
106957, 仁义镇, town,29.507107300000005,105.4804379,./maps_data/ 仁义镇.png
106958, พรหมโลก, town,8.5246661,99.8222617,./maps_data/ พรหมโลก.png
106959, 白玛镇, town,30.0551099,96.9179511,./maps_data/ 白玛镇.png
106960, 伏岭镇, town,30.1388902,118.72871440000002,./maps_data/ 伏岭镇.png
106961, Talimarjon, town,38.3012744,65.5524422,./maps_data/ Talimarjon.png
106962, Абакан, city,53.7206611,91.4403687,./maps_data/ Абакан.png
106963, 峨边彝族自治县, city,29.2307392,103.2593769,./maps_data/ 峨边彝族自治县.png
106964, 绥山镇, town,29.607229,103.4811347,./maps_data/ 绥山镇.png
106966, 九里镇, town,29.5050626,103.5017399,./maps_data/ 九里镇.png
106996, 老莱镇, town,48.6569531,125.0055347,./maps_data/ 老莱镇.png
107000, 哈达阳镇, town,49.2953,125.21,./maps_data/ 哈达阳镇.png
107026, 挖金湾街道, town,39.955163,112.9677179,./maps_data/ 挖金湾街道.png
107029, 雁崖街道, town,39.96777720000001,113.0090186,./maps_data/ 雁崖街道.png
107030, 蕉岭县, city,24.6655605,116.1578886,./maps_data/ 蕉岭县.png
107039, 上野原市, city,35.632505,139.08775,./maps_data/ 上野原市.png
107044, 连珠山镇, town,45.508092,131.7840954,./maps_data/ 连珠山镇.png
107049, 老君庙镇, town,39.8199444,97.5663615,./maps_data/ 老君庙镇.png
107056, 肃州区, city,39.744526,98.5072987,./maps_data/ 肃州区.png
107068, 平山镇, town,45.3212112,127.3964884,./maps_data/ 平山镇.png
107082, 五林镇, town,44.8192799,129.7915342,./maps_data/ 五林镇.png
107097, 张桥镇, town,34.7563489,109.383612,./maps_data/ 张桥镇.png
107098, 柳林镇, town,35.0549775,108.81348359999998,./maps_data/ 柳林镇.png
107099, 庙湾镇, town,35.161164500000005,108.77312759999998,./maps_data/ 庙湾镇.png
107114, กันตัง, town,7.4076996,99.5128339,./maps_data/ กันตัง.png
107126, 泗水县, city,35.65567479999999,117.2685877,./maps_data/ 泗水县.png
107129, 渠阳镇, town,26.5771768,109.69229579999998,./maps_data/ 渠阳镇.png
107131, თბილისი, city,41.6934591,44.8014495,./maps_data/ თბილისი.png
107134, 塔甸镇, town,24.2511948,102.1572588,./maps_data/ 塔甸镇.png
107138, 獅城鎮, town,27.1059237,119.3327189,./maps_data/ 獅城鎮.png
107139, Pakur, town,24.6377505,87.8472316,./maps_data/ Pakur.png
107164, 滕家镇, town,37.0520028,122.349147,./maps_data/ 滕家镇.png
107165, 威远镇, town,23.4985146,100.7040098,./maps_data/ 威远镇.png
107170, ঝিনাইদহ, town,23.5448144,89.1734196,./maps_data/ ঝিনাইদহ.png
107171, মাগুরা, town,23.488333,89.42,./maps_data/ মাগুরা.png
107189, 勐混镇, town,21.8421652,100.3868198,./maps_data/ 勐混镇.png
107190, 勐满镇, town,22.18,100.12799999999999,./maps_data/ 勐满镇.png
107191, དར་དཀར་, town,27.0746653,89.8786685,./maps_data/ དར་དཀར་.png
107192, གྲམ་ཕུ, town,27.005249600000006,90.1238493,./maps_data/ གྲམ་ཕུ.png
107193, གཞམས་སྒང་, town,27.2159241,90.658243,./maps_data/ གཞམས་སྒང་.png
107194, ကျောက်ပန်းတောင်း, town,20.8410724,95.1279364,./maps_data/ ကျောက်ပန်းတောင်း.png
107195, 渔涝镇, town,23.5023893,111.7399813,./maps_data/ 渔涝镇.png
107196, Mannargudi, town,10.6673278,79.4443834,./maps_data/ Mannargudi.png
107197, Kuttanallur, town,10.7102438,79.5176785,./maps_data/ Kuttanallur.png
107198, 勐糯镇, town,24.3212127,99.0404761,./maps_data/ 勐糯镇.png
107199, Beliatta, town,6.0480934,80.7335148,./maps_data/ Beliatta.png
107200, 梨埠镇, town,23.7713061,111.50606670000002,./maps_data/ 梨埠镇.png
107201, 六堡镇, town,23.8143558,111.3728704,./maps_data/ 六堡镇.png
107202, 沙头镇, town,23.9392557,111.527327,./maps_data/ 沙头镇.png
107203, 石桥镇, town,23.8454118,111.5397885,./maps_data/ 石桥镇.png
107204, 木双镇, town,23.6519244,111.55420759999998,./maps_data/ 木双镇.png
107206, 东坝镇, town,22.9318205,111.7391041,./maps_data/ 东坝镇.png
107207, 连滩镇, town,22.9317126,111.725034,./maps_data/ 连滩镇.png
107208, Mərdəkan, town,40.4936289,50.1493653,./maps_data/ Mərdəkan.png
107209, 河儿口镇, town,23.5179393,111.7902922,./maps_data/ 河儿口镇.png
107210, 七星镇, town,23.4610565,111.93444209999998,./maps_data/ 七星镇.png
107211, Мухоршибирь, town,51.046997,107.828537,./maps_data/ Мухоршибирь.png
107212, 龙南市, city,24.904661800000003,114.7997774,./maps_data/ 龙南市.png
107213, Тобол, town,52.693645,62.594765,./maps_data/ Тобол.png
107214, 孔垄镇, town,29.887521000000003,115.9081816,./maps_data/ 孔垄镇.png
107215, 破凉镇, town,30.234022600000007,116.1052101,./maps_data/ 破凉镇.png
107216, 小池镇, town,29.7534017,115.9920605,./maps_data/ 小池镇.png
107217, Гагра, town,43.2858243,40.265008,./maps_data/ Гагра.png
107218, Благовещенск, city,50.290527,127.527161,./maps_data/ Благовещенск.png
107220, عمان, city,31.9515694,35.9239625,./maps_data/ عمان.png
